[{"Latitude":-121.904945,"Longitude":37.692934,"Name":"AdventNet","Offices":{"type":"Point","coordinates":[-121.904945,37.692934]}},{"Latitude":-122.333253,"Longitude":47.603122,"Name":"Wetpaint","Offices":{"type":"Point","coordinates":[-122.333253,47.603122]}},{"Latitude":-73.9964312,"Longitude":40.7237306,"Name":"Wetpaint","Offices":{"type":"Point","coordinates":[-73.9964312,40.7237306]}},{"Latitude":-121.904945,"Longitude":37.692934,"Name":"Zoho","Offices":{"type":"Point","coordinates":[-121.904945,37.692934]}},{"Latitude":-122.394523,"Longitude":37.764726,"Name":"Digg","Offices":{"type":"Point","coordinates":[-122.394523,37.764726]}},{"Latitude":-122.247573,"Longitude":37.506885,"Name":"Postini","Offices":{"type":"Point","coordinates":[-122.247573,37.506885]}},{"Latitude":-118.393064,"Longitude":34.090368,"Name":"Geni","Offices":{"type":"Point","coordinates":[-118.393064,34.090368]}},{"Latitude":-118.39417,"Longitude":34.076179,"Name":"Fox Interactive Media","Offices":{"type":"Point","coordinates":[-118.39417,34.076179]}},{"Latitude":-122.169472,"Longitude":37.48413,"Name":"Gizmoz","Offices":{"type":"Point","coordinates":[-122.169472,37.48413]}},{"Latitude":-122.419204,"Longitude":37.775196,"Name":"StumbleUpon","Offices":{"type":"Point","coordinates":[-122.419204,37.775196]}},{"Latitude":-122.419204,"Longitude":37.775196,"Name":"StumbleUpon","Offices":{"type":"Point","coordinates":[-122.419204,37.775196]}},{"Latitude":-122.404052,"Longitude":37.789634,"Name":"Scribd","Offices":{"type":"Point","coordinates":[-122.404052,37.789634]}},{"Latitude":-117.081406,"Longitude":33.022176,"Name":"Slacker","Offices":{"type":"Point","coordinates":[-117.081406,33.022176]}},{"Latitude":-118.446596,"Longitude":34.057498,"Name":"Helio","Offices":{"type":"Point","coordinates":[-118.446596,34.057498]}},{"Latitude":-73.985506,"Longitude":40.757929,"Name":"MeetMoi","Offices":{"type":"Point","coordinates":[-73.985506,40.757929]}},{"Latitude":-74.0094471,"Longitude":40.7464969,"Name":"Joost","Offices":{"type":"Point","coordinates":[-74.0094471,40.7464969]}},{"Latitude":-122.4169244,"Longitude":37.7768052,"Name":"Twitter","Offices":{"type":"Point","coordinates":[-122.4169244,37.7768052]}},{"Latitude":-119.306607,"Longitude":37.269175,"Name":"CBS","Offices":{"type":"Point","coordinates":[-119.306607,37.269175]}},{"Latitude":-122.151801,"Longitude":37.41605,"Name":"Facebook","Offices":{"type":"Point","coordinates":[-122.151801,37.41605]}},{"Latitude":-6.267494,"Longitude":53.344104,"Name":"Facebook","Offices":{"type":"Point","coordinates":[-6.267494,53.344104]}},{"Latitude":-73.9792469,"Longitude":40.7557162,"Name":"Facebook","Offices":{"type":"Point","coordinates":[-73.9792469,40.7557162]}},{"Latitude":-6.267494,"Longitude":53.344104,"Name":"Babelgum","Offices":{"type":"Point","coordinates":[-6.267494,53.344104]}},{"Latitude":-122.055197,"Longitude":37.387845,"Name":"Plaxo","Offices":{"type":"Point","coordinates":[-122.055197,37.387845]}},{"Latitude":-73.986011,"Longitude":40.757725,"Name":"Viacom","Offices":{"type":"Point","coordinates":[-73.986011,40.757725]}},{"Latitude":-121.930035,"Longitude":37.295005,"Name":"eBay","Offices":{"type":"Point","coordinates":[-121.930035,37.295005]}},{"Latitude":-122.395289,"Longitude":37.778613,"Name":"Powerset","Offices":{"type":"Point","coordinates":[-122.395289,37.778613]}},{"Latitude":-122.393041,"Longitude":37.779558,"Name":"Technorati","Offices":{"type":"Point","coordinates":[-122.393041,37.779558]}},{"Latitude":-77.245195,"Longitude":38.926172,"Name":"AddThis","Offices":{"type":"Point","coordinates":[-77.245195,38.926172]}},{"Latitude":-73.996876,"Longitude":40.724604,"Name":"AddThis","Offices":{"type":"Point","coordinates":[-73.996876,40.724604]}},{"Latitude":-118.380954,"Longitude":34.0263021,"Name":"AddThis","Offices":{"type":"Point","coordinates":[-118.380954,34.0263021]}},{"Latitude":-118.380954,"Longitude":34.0263021,"Name":"AddThis","Offices":{"type":"Point","coordinates":[-118.380954,34.0263021]}},{"Latitude":-118.380954,"Longitude":34.0263021,"Name":"AddThis","Offices":{"type":"Point","coordinates":[-118.380954,34.0263021]}},{"Latitude":-83.167884,"Longitude":42.557958,"Name":"AddThis","Offices":{"type":"Point","coordinates":[-83.167884,42.557958]}},{"Latitude":-118.487267,"Longitude":34.017606,"Name":"Mahalo","Offices":{"type":"Point","coordinates":[-118.487267,34.017606]}},{"Latitude":-95.712891,"Longitude":37.09024,"Name":"Sparter","Offices":{"type":"Point","coordinates":[-95.712891,37.09024]}},{"Latitude":-118.1327468,"Longitude":34.1494713,"Name":"OpenX","Offices":{"type":"Point","coordinates":[-118.1327468,34.1494713]}},{"Latitude":-118.1327468,"Longitude":34.1494713,"Name":"OpenX","Offices":{"type":"Point","coordinates":[-118.1327468,34.1494713]}},{"Latitude":-118.1327468,"Longitude":34.1494713,"Name":"OpenX","Offices":{"type":"Point","coordinates":[-118.1327468,34.1494713]}},{"Latitude":-118.1327468,"Longitude":34.1494713,"Name":"OpenX","Offices":{"type":"Point","coordinates":[-118.1327468,34.1494713]}},{"Latitude":-118.1327468,"Longitude":34.1494713,"Name":"OpenX","Offices":{"type":"Point","coordinates":[-118.1327468,34.1494713]}},{"Latitude":-122.409173,"Longitude":37.788482,"Name":"Kyte","Offices":{"type":"Point","coordinates":[-122.409173,37.788482]}},{"Latitude":-117.20834,"Longitude":32.902266,"Name":"Veoh","Offices":{"type":"Point","coordinates":[-117.20834,32.902266]}},{"Latitude":-97.745209,"Longitude":30.268735,"Name":"Thoof","Offices":{"type":"Point","coordinates":[-97.745209,30.268735]}},{"Latitude":-122.173887,"Longitude":37.480999,"Name":"Jingle Networks","Offices":{"type":"Point","coordinates":[-122.173887,37.480999]}},{"Latitude":-111.938739,"Longitude":33.429859,"Name":"LifeLock","Offices":{"type":"Point","coordinates":[-111.938739,33.429859]}},{"Latitude":-122.402567,"Longitude":37.793148,"Name":"Wesabe","Offices":{"type":"Point","coordinates":[-122.402567,37.793148]}},{"Latitude":-121.95377,"Longitude":37.408802,"Name":"Cisco","Offices":{"type":"Point","coordinates":[-121.95377,37.408802]}},{"Latitude":-121.907768,"Longitude":37.697805,"Name":"Jangl SMS","Offices":{"type":"Point","coordinates":[-121.907768,37.697805]}},{"Latitude":-122.067692,"Longitude":37.390056,"Name":"SmugMug","Offices":{"type":"Point","coordinates":[-122.067692,37.390056]}},{"Latitude":-122.402524,"Longitude":37.78976,"Name":"Prosper","Offices":{"type":"Point","coordinates":[-122.402524,37.78976]}},{"Latitude":-73.995722,"Longitude":40.72604,"Name":"Meetup","Offices":{"type":"Point","coordinates":[-73.995722,40.72604]}},{"Latitude":-122.025485,"Longitude":37.418531,"Name":"Yahoo!","Offices":{"type":"Point","coordinates":[-122.025485,37.418531]}},{"Latitude":-122.0899512,"Longitude":37.4233896,"Name":"Jajah","Offices":{"type":"Point","coordinates":[-122.0899512,37.4233896]}},{"Latitude":-118.254558,"Longitude":34.051409,"Name":"Stickam","Offices":{"type":"Point","coordinates":[-118.254558,34.051409]}},{"Latitude":34.851612,"Longitude":31.046051,"Name":"blogTV","Offices":{"type":"Point","coordinates":[34.851612,31.046051]}},{"Latitude":-73.995625,"Longitude":40.726155,"Name":"Livestream","Offices":{"type":"Point","coordinates":[-73.995625,40.726155]}},{"Latitude":-0.131916,"Longitude":51.518132,"Name":"Skype","Offices":{"type":"Point","coordinates":[-0.131916,51.518132]}},{"Latitude":-0.131916,"Longitude":51.518132,"Name":"Skype","Offices":{"type":"Point","coordinates":[-0.131916,51.518132]}},{"Latitude":-0.131916,"Longitude":51.518132,"Name":"Skype","Offices":{"type":"Point","coordinates":[-0.131916,51.518132]}},{"Latitude":-74.3372,"Longitude":40.801358,"Name":"AdaptiveBlue","Offices":{"type":"Point","coordinates":[-74.3372,40.801358]}},{"Latitude":-73.99873,"Longitude":40.722655,"Name":"Pando Networks","Offices":{"type":"Point","coordinates":[-73.99873,40.722655]}},{"Latitude":-122.07948,"Longitude":37.392936,"Name":"Ustream","Offices":{"type":"Point","coordinates":[-122.07948,37.392936]}},{"Latitude":-122.07948,"Longitude":37.392936,"Name":"Ustream","Offices":{"type":"Point","coordinates":[-122.07948,37.392936]}},{"Latitude":-122.07948,"Longitude":37.392936,"Name":"Ustream","Offices":{"type":"Point","coordinates":[-122.07948,37.392936]}},{"Latitude":-121.932202,"Longitude":37.465645,"Name":"GrandCentral","Offices":{"type":"Point","coordinates":[-121.932202,37.465645]}},{"Latitude":-73.563878,"Longitude":41.049051,"Name":"Ikan","Offices":{"type":"Point","coordinates":[-73.563878,41.049051]}},{"Latitude":-122.151198,"Longitude":37.44296,"Name":"Topix","Offices":{"type":"Point","coordinates":[-122.151198,37.44296]}},{"Latitude":-122.357242,"Longitude":47.617682,"Name":"Jobster","Offices":{"type":"Point","coordinates":[-122.357242,47.617682]}},{"Latitude":-122.397224,"Longitude":37.762541,"Name":"Pownce","Offices":{"type":"Point","coordinates":[-122.397224,37.762541]}},{"Latitude":-122.426804,"Longitude":37.627971,"Name":"YouTube","Offices":{"type":"Point","coordinates":[-122.426804,37.627971]}},{"Latitude":-1.255824,"Longitude":51.752276,"Name":"AllPeers","Offices":{"type":"Point","coordinates":[-1.255824,51.752276]}},{"Latitude":-119.306607,"Longitude":37.269175,"Name":"CriticalMetrics","Offices":{"type":"Point","coordinates":[-119.306607,37.269175]}},{"Latitude":-122.388243,"Longitude":37.757758,"Name":"Revision3","Offices":{"type":"Point","coordinates":[-122.388243,37.757758]}},{"Latitude":-122.347533,"Longitude":47.620716,"Name":"ZenZui","Offices":{"type":"Point","coordinates":[-122.347533,47.620716]}},{"Latitude":-122.217964,"Longitude":37.488336,"Name":"Spock","Offices":{"type":"Point","coordinates":[-122.217964,37.488336]}},{"Latitude":-122.302262,"Longitude":37.559287,"Name":"Wize","Offices":{"type":"Point","coordinates":[-122.302262,37.559287]}},{"Latitude":-119.306607,"Longitude":37.269175,"Name":"SodaHead","Offices":{"type":"Point","coordinates":[-119.306607,37.269175]}},{"Latitude":-71.118487,"Longitude":42.375392,"Name":"iSkoot","Offices":{"type":"Point","coordinates":[-71.118487,42.375392]}},{"Latitude":-122.396744,"Longitude":37.780134,"Name":"iSkoot","Offices":{"type":"Point","coordinates":[-122.396744,37.780134]}},{"Latitude":-122.393913,"Longitude":37.780716,"Name":"CastTV","Offices":{"type":"Point","coordinates":[-122.393913,37.780716]}},{"Latitude":37.617633,"Longitude":55.755786,"Name":"AllofMP3","Offices":{"type":"Point","coordinates":[37.617633,55.755786]}},{"Latitude":-123.138565,"Longitude":49.263588,"Name":"EQO","Offices":{"type":"Point","coordinates":[-123.138565,49.263588]}},{"Latitude":6.553452,"Longitude":51.808933,"Name":"SellABand","Offices":{"type":"Point","coordinates":[6.553452,51.808933]}},{"Latitude":-121.96761,"Longitude":37.384949,"Name":"Intel","Offices":{"type":"Point","coordinates":[-121.96761,37.384949]}},{"Latitude":-122.137444,"Longitude":37.421621,"Name":"Funny Or Die","Offices":{"type":"Point","coordinates":[-122.137444,37.421621]}},{"Latitude":-122.341715,"Longitude":37.590339,"Name":"MeeVee","Offices":{"type":"Point","coordinates":[-122.341715,37.590339]}},{"Latitude":-122.395089,"Longitude":37.793819,"Name":"blinkx","Offices":{"type":"Point","coordinates":[-122.395089,37.793819]}},{"Latitude":-6.229255,"Longitude":53.354997,"Name":"Steorn","Offices":{"type":"Point","coordinates":[-6.229255,53.354997]}},{"Latitude":-118.756618,"Longitude":34.155211,"Name":"ClipBlast!","Offices":{"type":"Point","coordinates":[-118.756618,34.155211]}},{"Latitude":2.381836,"Longitude":48.862825,"Name":"Zlio","Offices":{"type":"Point","coordinates":[2.381836,48.862825]}},{"Latitude":24.93105,"Longitude":60.16377,"Name":"Jaiku","Offices":{"type":"Point","coordinates":[24.93105,60.16377]}},{"Latitude":-122.4038047,"Longitude":37.7870842,"Name":"Mashery","Offices":{"type":"Point","coordinates":[-122.4038047,37.7870842]}},{"Latitude":-122.4038047,"Longitude":37.7870842,"Name":"Mashery","Offices":{"type":"Point","coordinates":[-122.4038047,37.7870842]}},{"Latitude":-122.4038047,"Longitude":37.7870842,"Name":"Mashery","Offices":{"type":"Point","coordinates":[-122.4038047,37.7870842]}},{"Latitude":-122.402195,"Longitude":37.786183,"Name":"Yelp","Offices":{"type":"Point","coordinates":[-122.402195,37.786183]}},{"Latitude":-121.940749,"Longitude":37.380101,"Name":"Spotplex","Offices":{"type":"Point","coordinates":[-121.940749,37.380101]}},{"Latitude":-118.243425,"Longitude":34.052187,"Name":"TripUp","Offices":{"type":"Point","coordinates":[-118.243425,34.052187]}},{"Latitude":4.8948623,"Longitude":52.3745228,"Name":"Wakoopa","Offices":{"type":"Point","coordinates":[4.8948623,52.3745228]}},{"Latitude":4.908556,"Longitude":52.375595,"Name":"Fleck","Offices":{"type":"Point","coordinates":[4.908556,52.375595]}},{"Latitude":-122.221717,"Longitude":37.476479,"Name":"Coghead","Offices":{"type":"Point","coordinates":[-122.221717,37.476479]}},{"Latitude":-122.334264,"Longitude":47.599925,"Name":"Yapta","Offices":{"type":"Point","coordinates":[-122.334264,47.599925]}},{"Latitude":-122.334264,"Longitude":47.599925,"Name":"Yapta","Offices":{"type":"Point","coordinates":[-122.334264,47.599925]}},{"Latitude":-1.3610845,"Longitude":50.9444598,"Name":"Zamzar","Offices":{"type":"Point","coordinates":[-1.3610845,50.9444598]}},{"Latitude":-122.419204,"Longitude":37.775196,"Name":"Zooomr","Offices":{"type":"Point","coordinates":[-122.419204,37.775196]}},{"Latitude":-121.977853,"Longitude":37.374998,"Name":"SideStep","Offices":{"type":"Point","coordinates":[-121.977853,37.374998]}},{"Latitude":-122.02421,"Longitude":37.36965,"Name":"coRank","Offices":{"type":"Point","coordinates":[-122.02421,37.36965]}},{"Latitude":-122.084143,"Longitude":37.421972,"Name":"Google","Offices":{"type":"Point","coordinates":[-122.084143,37.421972]}},{"Latitude":-83.748882,"Longitude":42.280988,"Name":"Google","Offices":{"type":"Point","coordinates":[-83.748882,42.280988]}},{"Latitude":-84.387519,"Longitude":33.781466,"Name":"Google","Offices":{"type":"Point","coordinates":[-84.387519,33.781466]}},{"Latitude":-97.751382,"Longitude":30.351416,"Name":"Google","Offices":{"type":"Point","coordinates":[-97.751382,30.351416]}},{"Latitude":-105.260931,"Longitude":40.021416,"Name":"Google","Offices":{"type":"Point","coordinates":[-105.260931,40.021416]}},{"Latitude":-71.087478,"Longitude":42.36305,"Name":"Google","Offices":{"type":"Point","coordinates":[-71.087478,42.36305]}},{"Latitude":-87.628912,"Longitude":41.889474,"Name":"Google","Offices":{"type":"Point","coordinates":[-87.628912,41.889474]}},{"Latitude":-97.018196,"Longitude":32.981465,"Name":"Google","Offices":{"type":"Point","coordinates":[-97.018196,32.981465]}},{"Latitude":-96.807693,"Longitude":32.809161,"Name":"Google","Offices":{"type":"Point","coordinates":[-96.807693,32.809161]}},{"Latitude":-104.898419,"Longitude":39.62919,"Name":"Google","Offices":{"type":"Point","coordinates":[-104.898419,39.62919]}},{"Latitude":-83.215498,"Longitude":42.547807,"Name":"Google","Offices":{"type":"Point","coordinates":[-83.215498,42.547807]}},{"Latitude":-117.861817,"Longitude":33.658331,"Name":"Google","Offices":{"type":"Point","coordinates":[-117.861817,33.658331]}},{"Latitude":-117.861817,"Longitude":33.658331,"Name":"Google","Offices":{"type":"Point","coordinates":[-117.861817,33.658331]}},{"Latitude":-74.004489,"Longitude":40.74222,"Name":"Google","Offices":{"type":"Point","coordinates":[-74.004489,40.74222]}},{"Latitude":-111.926263,"Longitude":33.411898,"Name":"Google","Offices":{"type":"Point","coordinates":[-111.926263,33.411898]}},{"Latitude":-79.946269,"Longitude":40.444528,"Name":"Google","Offices":{"type":"Point","coordinates":[-79.946269,40.444528]}},{"Latitude":-122.389757,"Longitude":37.789803,"Name":"Google","Offices":{"type":"Point","coordinates":[-122.389757,37.789803]}},{"Latitude":-118.494288,"Longitude":34.019282,"Name":"Google","Offices":{"type":"Point","coordinates":[-118.494288,34.019282]}},{"Latitude":-122.351397,"Longitude":47.675326,"Name":"Google","Offices":{"type":"Point","coordinates":[-122.351397,47.675326]}},{"Latitude":-122.350592,"Longitude":47.649701,"Name":"Google","Offices":{"type":"Point","coordinates":[-122.350592,47.649701]}},{"Latitude":-77.027101,"Longitude":38.901113,"Name":"Google","Offices":{"type":"Point","coordinates":[-77.027101,38.901113]}},{"Latitude":145.073608,"Longitude":-37.879234,"Name":"Google","Offices":{"type":"Point","coordinates":[145.073608,-37.879234]}},{"Latitude":138.612396,"Longitude":-34.822723,"Name":"Google","Offices":{"type":"Point","coordinates":[138.612396,-34.822723]}},{"Latitude":138.612396,"Longitude":-34.822723,"Name":"Google","Offices":{"type":"Point","coordinates":[138.612396,-34.822723]}},{"Latitude":138.612396,"Longitude":-34.822723,"Name":"Google","Offices":{"type":"Point","coordinates":[138.612396,-34.822723]}},{"Latitude":138.612396,"Longitude":-34.822723,"Name":"Google","Offices":{"type":"Point","coordinates":[138.612396,-34.822723]}},{"Latitude":138.612396,"Longitude":-34.822723,"Name":"Google","Offices":{"type":"Point","coordinates":[138.612396,-34.822723]}},{"Latitude":138.612396,"Longitude":-34.822723,"Name":"Google","Offices":{"type":"Point","coordinates":[138.612396,-34.822723]}},{"Latitude":138.612396,"Longitude":-34.822723,"Name":"Google","Offices":{"type":"Point","coordinates":[138.612396,-34.822723]}},{"Latitude":77.122261,"Longitude":28.86999,"Name":"Google","Offices":{"type":"Point","coordinates":[77.122261,28.86999]}},{"Latitude":77.122261,"Longitude":28.86999,"Name":"Google","Offices":{"type":"Point","coordinates":[77.122261,28.86999]}},{"Latitude":77.122261,"Longitude":28.86999,"Name":"Google","Offices":{"type":"Point","coordinates":[77.122261,28.86999]}},{"Latitude":77.122261,"Longitude":28.86999,"Name":"Google","Offices":{"type":"Point","coordinates":[77.122261,28.86999]}},{"Latitude":77.122261,"Longitude":28.86999,"Name":"Google","Offices":{"type":"Point","coordinates":[77.122261,28.86999]}},{"Latitude":77.122261,"Longitude":28.86999,"Name":"Google","Offices":{"type":"Point","coordinates":[77.122261,28.86999]}},{"Latitude":77.122261,"Longitude":28.86999,"Name":"Google","Offices":{"type":"Point","coordinates":[77.122261,28.86999]}},{"Latitude":77.122261,"Longitude":28.86999,"Name":"Google","Offices":{"type":"Point","coordinates":[77.122261,28.86999]}},{"Latitude":10.187799,"Longitude":56.171882,"Name":"Google","Offices":{"type":"Point","coordinates":[10.187799,56.171882]}},{"Latitude":10.187799,"Longitude":56.171882,"Name":"Google","Offices":{"type":"Point","coordinates":[10.187799,56.171882]}},{"Latitude":10.187799,"Longitude":56.171882,"Name":"Google","Offices":{"type":"Point","coordinates":[10.187799,56.171882]}},{"Latitude":2.332749,"Longitude":48.869606,"Name":"Google","Offices":{"type":"Point","coordinates":[2.332749,48.869606]}},{"Latitude":9.985266,"Longitude":53.554052,"Name":"Google","Offices":{"type":"Point","coordinates":[9.985266,53.554052]}},{"Latitude":-6.234424,"Longitude":53.339914,"Name":"Google","Offices":{"type":"Point","coordinates":[-6.234424,53.339914]}},{"Latitude":9.195978,"Longitude":45.46381,"Name":"Google","Offices":{"type":"Point","coordinates":[9.195978,45.46381]}},{"Latitude":4.871464,"Longitude":52.337495,"Name":"Google","Offices":{"type":"Point","coordinates":[4.871464,52.337495]}},{"Latitude":10.741047,"Longitude":59.915848,"Name":"Google","Offices":{"type":"Point","coordinates":[10.741047,59.915848]}},{"Latitude":10.412428,"Longitude":63.435324,"Name":"Google","Offices":{"type":"Point","coordinates":[10.412428,63.435324]}},{"Latitude":19.929806,"Longitude":50.063281,"Name":"Google","Offices":{"type":"Point","coordinates":[19.929806,50.063281]}},{"Latitude":17.041942,"Longitude":51.116574,"Name":"Google","Offices":{"type":"Point","coordinates":[17.041942,51.116574]}},{"Latitude":17.041942,"Longitude":51.116574,"Name":"Google","Offices":{"type":"Point","coordinates":[17.041942,51.116574]}},{"Latitude":17.041942,"Longitude":51.116574,"Name":"Google","Offices":{"type":"Point","coordinates":[17.041942,51.116574]}},{"Latitude":17.041942,"Longitude":51.116574,"Name":"Google","Offices":{"type":"Point","coordinates":[17.041942,51.116574]}},{"Latitude":22.126255,"Longitude":65.617491,"Name":"Google","Offices":{"type":"Point","coordinates":[22.126255,65.617491]}},{"Latitude":18.060162,"Longitude":59.332344,"Name":"Google","Offices":{"type":"Point","coordinates":[18.060162,59.332344]}},{"Latitude":8.524864,"Longitude":47.36554,"Name":"Google","Offices":{"type":"Point","coordinates":[8.524864,47.36554]}},{"Latitude":8.524864,"Longitude":47.36554,"Name":"Google","Offices":{"type":"Point","coordinates":[8.524864,47.36554]}},{"Latitude":-2.250166,"Longitude":53.473606,"Name":"Google","Offices":{"type":"Point","coordinates":[-2.250166,53.473606]}},{"Latitude":-73.567044,"Longitude":45.498588,"Name":"Google","Offices":{"type":"Point","coordinates":[-73.567044,45.498588]}},{"Latitude":-73.567044,"Longitude":45.498588,"Name":"Google","Offices":{"type":"Point","coordinates":[-73.567044,45.498588]}},{"Latitude":-80.546381,"Longitude":43.474704,"Name":"Google","Offices":{"type":"Point","coordinates":[-80.546381,43.474704]}},{"Latitude":-80.546381,"Longitude":43.474704,"Name":"Google","Offices":{"type":"Point","coordinates":[-80.546381,43.474704]}},{"Latitude":-46.681494,"Longitude":-23.590463,"Name":"Google","Offices":{"type":"Point","coordinates":[-46.681494,-23.590463]}},{"Latitude":-99.030156,"Longitude":19.507519,"Name":"Google","Offices":{"type":"Point","coordinates":[-99.030156,19.507519]}},{"Latitude":-99.030156,"Longitude":19.507519,"Name":"Google","Offices":{"type":"Point","coordinates":[-99.030156,19.507519]}},{"Latitude":-99.030156,"Longitude":19.507519,"Name":"Google","Offices":{"type":"Point","coordinates":[-99.030156,19.507519]}},{"Latitude":-99.030156,"Longitude":19.507519,"Name":"Google","Offices":{"type":"Point","coordinates":[-99.030156,19.507519]}},{"Latitude":-99.030156,"Longitude":19.507519,"Name":"Google","Offices":{"type":"Point","coordinates":[-99.030156,19.507519]}},{"Latitude":-122.359397,"Longitude":47.620982,"Name":"Farecast","Offices":{"type":"Point","coordinates":[-122.359397,47.620982]}},{"Latitude":-118.495155,"Longitude":34.0126379,"Name":"ConVerdge","Offices":{"type":"Point","coordinates":[-118.495155,34.0126379]}},{"Latitude":-122.414689,"Longitude":37.758113,"Name":"Pageflakes","Offices":{"type":"Point","coordinates":[-122.414689,37.758113]}},{"Latitude":-122.4058887,"Longitude":37.7791761,"Name":"Instructables","Offices":{"type":"Point","coordinates":[-122.4058887,37.7791761]}},{"Latitude":-122.395184,"Longitude":37.789268,"Name":"Swivel","Offices":{"type":"Point","coordinates":[-122.395184,37.789268]}},{"Latitude":-73.9843328,"Longitude":40.7516611,"Name":"KickApps","Offices":{"type":"Point","coordinates":[-73.9843328,40.7516611]}},{"Latitude":-118.468707,"Longitude":33.991101,"Name":"KickApps","Offices":{"type":"Point","coordinates":[-118.468707,33.991101]}},{"Latitude":-122.4016144,"Longitude":37.7891086,"Name":"KickApps","Offices":{"type":"Point","coordinates":[-122.4016144,37.7891086]}},{"Latitude":-0.1356235,"Longitude":51.5094731,"Name":"KickApps","Offices":{"type":"Point","coordinates":[-0.1356235,51.5094731]}},{"Latitude":2.34668,"Longitude":48.870806,"Name":"Netvibes","Offices":{"type":"Point","coordinates":[2.34668,48.870806]}},{"Latitude":2.34668,"Longitude":48.870806,"Name":"Netvibes","Offices":{"type":"Point","coordinates":[2.34668,48.870806]}},{"Latitude":-122.392144,"Longitude":37.781427,"Name":"Slide","Offices":{"type":"Point","coordinates":[-122.392144,37.781427]}},{"Latitude":-122.397977,"Longitude":37.778076,"Name":"BabyCenter","Offices":{"type":"Point","coordinates":[-122.397977,37.778076]}},{"Latitude":-122.401116,"Longitude":37.782103,"Name":"Bebo","Offices":{"type":"Point","coordinates":[-122.401116,37.782103]}},{"Latitude":-122.025485,"Longitude":37.418531,"Name":"Flickr","Offices":{"type":"Point","coordinates":[-122.025485,37.418531]}},{"Latitude":-122.206893,"Longitude":37.484619,"Name":"RockYou","Offices":{"type":"Point","coordinates":[-122.206893,37.484619]}},{"Latitude":-95.712891,"Longitude":37.09024,"Name":"WeFi","Offices":{"type":"Point","coordinates":[-95.712891,37.09024]}},{"Latitude":-122.338793,"Longitude":47.614653,"Name":"TripHub","Offices":{"type":"Point","coordinates":[-122.338793,47.614653]}},{"Latitude":-122.511687,"Longitude":37.90077,"Name":"CrowdVine","Offices":{"type":"Point","coordinates":[-122.511687,37.90077]}},{"Latitude":-87.628912,"Longitude":41.889474,"Name":"FeedBurner","Offices":{"type":"Point","coordinates":[-87.628912,41.889474]}},{"Latitude":-122.073463,"Longitude":37.391502,"Name":"TheFind","Offices":{"type":"Point","coordinates":[-122.073463,37.391502]}},{"Latitude":2.350987,"Longitude":48.856667,"Name":"TVtrip","Offices":{"type":"Point","coordinates":[2.350987,48.856667]}},{"Latitude":-122.2013557,"Longitude":37.5108541,"Name":"Zazzle","Offices":{"type":"Point","coordinates":[-122.2013557,37.5108541]}},{"Latitude":-122.400909,"Longitude":37.762681,"Name":"Dogster","Offices":{"type":"Point","coordinates":[-122.400909,37.762681]}},{"Latitude":-89.522805,"Longitude":43.090756,"Name":"Sway","Offices":{"type":"Point","coordinates":[-89.522805,43.090756]}},{"Latitude":-96.771281,"Longitude":32.914662,"Name":"CornerWorld","Offices":{"type":"Point","coordinates":[-96.771281,32.914662]}},{"Latitude":2.381514,"Longitude":48.866323,"Name":"WatZatSong","Offices":{"type":"Point","coordinates":[2.381514,48.866323]}},{"Latitude":-122.40184,"Longitude":37.779026,"Name":"adBrite","Offices":{"type":"Point","coordinates":[-122.40184,37.779026]}},{"Latitude":-122.404869,"Longitude":37.796396,"Name":"Loomia","Offices":{"type":"Point","coordinates":[-122.404869,37.796396]}},{"Latitude":-122.079017,"Longitude":37.393679,"Name":"Meebo","Offices":{"type":"Point","coordinates":[-122.079017,37.393679]}},{"Latitude":-122.079017,"Longitude":37.393679,"Name":"Meebo","Offices":{"type":"Point","coordinates":[-122.079017,37.393679]}},{"Latitude":-122.079017,"Longitude":37.393679,"Name":"Meebo","Offices":{"type":"Point","coordinates":[-122.079017,37.393679]}},{"Latitude":-122.079017,"Longitude":37.393679,"Name":"Meebo","Offices":{"type":"Point","coordinates":[-122.079017,37.393679]}},{"Latitude":-122.079017,"Longitude":37.393679,"Name":"Meebo","Offices":{"type":"Point","coordinates":[-122.079017,37.393679]}},{"Latitude":-122.358484,"Longitude":47.618599,"Name":"Newsvine","Offices":{"type":"Point","coordinates":[-122.358484,47.618599]}},{"Latitude":6.1329985,"Longitude":49.6026778,"Name":"Jamendo","Offices":{"type":"Point","coordinates":[6.1329985,49.6026778]}},{"Latitude":-122.159928,"Longitude":37.437328,"Name":"Terabitz","Offices":{"type":"Point","coordinates":[-122.159928,37.437328]}},{"Latitude":-122.39071,"Longitude":37.779507,"Name":"Eventbrite","Offices":{"type":"Point","coordinates":[-122.39071,37.779507]}},{"Latitude":-122.323408,"Longitude":47.615313,"Name":"iLike","Offices":{"type":"Point","coordinates":[-122.323408,47.615313]}},{"Latitude":-122.269259,"Longitude":37.870744,"Name":"FlickIM","Offices":{"type":"Point","coordinates":[-122.269259,37.870744]}},{"Latitude":-118.3835957,"Longitude":34.0906602,"Name":"Ticketmaster","Offices":{"type":"Point","coordinates":[-118.3835957,34.0906602]}},{"Latitude":-122.143701,"Longitude":37.425801,"Name":"Box","Offices":{"type":"Point","coordinates":[-122.143701,37.425801]}},{"Latitude":-122.325248,"Longitude":37.561877,"Name":"Conduit","Offices":{"type":"Point","coordinates":[-122.325248,37.561877]}},{"Latitude":-71.076869,"Longitude":42.350571,"Name":"Carbonite","Offices":{"type":"Point","coordinates":[-71.076869,42.350571]}},{"Latitude":-122.073635,"Longitude":37.423258,"Name":"LinkedIn","Offices":{"type":"Point","coordinates":[-122.073635,37.423258]}},{"Latitude":-122.072981,"Longitude":37.40047,"Name":"Wink","Offices":{"type":"Point","coordinates":[-122.072981,37.40047]}},{"Latitude":34.7595,"Longitude":32.0554,"Name":"Go2Web20","Offices":{"type":"Point","coordinates":[34.7595,32.0554]}},{"Latitude":-122.333253,"Longitude":47.603122,"Name":"Redfin","Offices":{"type":"Point","coordinates":[-122.333253,47.603122]}},{"Latitude":6.139959,"Longitude":46.20381,"Name":"coComment","Offices":{"type":"Point","coordinates":[6.139959,46.20381]}},{"Latitude":-84.351532,"Longitude":39.06685,"Name":"TechnologyGuide","Offices":{"type":"Point","coordinates":[-84.351532,39.06685]}},{"Latitude":-122.419204,"Longitude":37.775196,"Name":"GigaOM","Offices":{"type":"Point","coordinates":[-122.419204,37.775196]}},{"Latitude":-74.0059731,"Longitude":40.7143528,"Name":"GigaOM","Offices":{"type":"Point","coordinates":[-74.0059731,40.7143528]}},{"Latitude":-78.48158,"Longitude":38.030823,"Name":"Hotelicopter","Offices":{"type":"Point","coordinates":[-78.48158,38.030823]}},{"Latitude":-122.036301,"Longitude":37.382162,"Name":"Kaboodle","Offices":{"type":"Point","coordinates":[-122.036301,37.382162]}},{"Latitude":-122.419204,"Longitude":37.775196,"Name":"Seesmic","Offices":{"type":"Point","coordinates":[-122.419204,37.775196]}},{"Latitude":-122.301534,"Longitude":37.553121,"Name":"Zvents","Offices":{"type":"Point","coordinates":[-122.301534,37.553121]}},{"Latitude":-122.3985871,"Longitude":37.7618242,"Name":"Techmeme","Offices":{"type":"Point","coordinates":[-122.3985871,37.7618242]}},{"Latitude":-105.1110024,"Longitude":39.9195028,"Name":"RegOnline","Offices":{"type":"Point","coordinates":[-105.1110024,39.9195028]}},{"Latitude":-122.324621,"Longitude":37.563585,"Name":"Oodle","Offices":{"type":"Point","coordinates":[-122.324621,37.563585]}},{"Latitude":-117.206292,"Longitude":32.872081,"Name":"Eventful","Offices":{"type":"Point","coordinates":[-117.206292,32.872081]}},{"Latitude":-117.206292,"Longitude":32.872081,"Name":"Eventful","Offices":{"type":"Point","coordinates":[-117.206292,32.872081]}},{"Latitude":-95.712891,"Longitude":37.09024,"Name":"Scripps Networks Interactive","Offices":{"type":"Point","coordinates":[-95.712891,37.09024]}},{"Latitude":-122.0780632,"Longitude":37.4219165,"Name":"Simply Hired","Offices":{"type":"Point","coordinates":[-122.0780632,37.4219165]}},{"Latitude":-122.116026,"Longitude":37.451958,"Name":"ooma","Offices":{"type":"Point","coordinates":[-122.116026,37.451958]}},{"Latitude":-122.420903,"Longitude":37.796164,"Name":"Cofoundr","Offices":{"type":"Point","coordinates":[-122.420903,37.796164]}},{"Latitude":-122.392861,"Longitude":37.76785,"Name":"Ujogo","Offices":{"type":"Point","coordinates":[-122.392861,37.76785]}},{"Latitude":-122.450942,"Longitude":47.420728,"Name":"Recipezaar","Offices":{"type":"Point","coordinates":[-122.450942,47.420728]}},{"Latitude":-122.178557,"Longitude":37.479952,"Name":"oDesk","Offices":{"type":"Point","coordinates":[-122.178557,37.479952]}},{"Latitude":-118.350486,"Longitude":34.070436,"Name":"stylediary","Offices":{"type":"Point","coordinates":[-118.350486,34.070436]}},{"Latitude":-118.601532,"Longitude":34.184598,"Name":"Gumiyo","Offices":{"type":"Point","coordinates":[-118.601532,34.184598]}},{"Latitude":-121.96533,"Longitude":37.255118,"Name":"ictv","Offices":{"type":"Point","coordinates":[-121.96533,37.255118]}},{"Latitude":-122.392142,"Longitude":37.782263,"Name":"GoingOn","Offices":{"type":"Point","coordinates":[-122.392142,37.782263]}},{"Latitude":-122.406676,"Longitude":37.766909,"Name":"Flixster","Offices":{"type":"Point","coordinates":[-122.406676,37.766909]}},{"Latitude":-77.072003,"Longitude":38.897428,"Name":"MyPublicInfo","Offices":{"type":"Point","coordinates":[-77.072003,38.897428]}},{"Latitude":-122.398479,"Longitude":37.793703,"Name":"Piczo","Offices":{"type":"Point","coordinates":[-122.398479,37.793703]}},{"Latitude":-122.547445,"Longitude":37.905544,"Name":"Checkster","Offices":{"type":"Point","coordinates":[-122.547445,37.905544]}},{"Latitude":-122.397759,"Longitude":37.787183,"Name":"Vast","Offices":{"type":"Point","coordinates":[-122.397759,37.787183]}},{"Latitude":-122.397759,"Longitude":37.787183,"Name":"Vast","Offices":{"type":"Point","coordinates":[-122.397759,37.787183]}},{"Latitude":-80.004195,"Longitude":40.437985,"Name":"Spreadshirt","Offices":{"type":"Point","coordinates":[-80.004195,40.437985]}},{"Latitude":-96.797111,"Longitude":32.781078,"Name":"IceRocket","Offices":{"type":"Point","coordinates":[-96.797111,32.781078]}},{"Latitude":-122.1615,"Longitude":37.442949,"Name":"Socialtext","Offices":{"type":"Point","coordinates":[-122.1615,37.442949]}},{"Latitude":-0.205349,"Longitude":51.514935,"Name":"ConnectMeAnywhere","Offices":{"type":"Point","coordinates":[-0.205349,51.514935]}},{"Latitude":-97.717667,"Longitude":30.407545,"Name":"Bazaarvoice","Offices":{"type":"Point","coordinates":[-97.717667,30.407545]}},{"Latitude":-121.979453,"Longitude":37.321798,"Name":"LiveWorld","Offices":{"type":"Point","coordinates":[-121.979453,37.321798]}},{"Latitude":-0.126236,"Longitude":51.500152,"Name":"LiveWorld","Offices":{"type":"Point","coordinates":[-0.126236,51.500152]}},{"Latitude":11.978686,"Longitude":44.418166,"Name":"Clipperz","Offices":{"type":"Point","coordinates":[11.978686,44.418166]}},{"Latitude":-122.400558,"Longitude":37.788668,"Name":"hi5","Offices":{"type":"Point","coordinates":[-122.400558,37.788668]}},{"Latitude":-122.4186,"Longitude":37.7753,"Name":"Tagged","Offices":{"type":"Point","coordinates":[-122.4186,37.7753]}},{"Latitude":-87.6557234,"Longitude":41.8892178,"Name":"37signals","Offices":{"type":"Point","coordinates":[-87.6557234,41.8892178]}},{"Latitude":-71.051931,"Longitude":42.340889,"Name":"ScanScout","Offices":{"type":"Point","coordinates":[-71.051931,42.340889]}},{"Latitude":-73.993158,"Longitude":40.739833,"Name":"ScanScout","Offices":{"type":"Point","coordinates":[-73.993158,40.739833]}},{"Latitude":-118.459995,"Longitude":34.050887,"Name":"ScanScout","Offices":{"type":"Point","coordinates":[-118.459995,34.050887]}},{"Latitude":138.252924,"Longitude":36.204824,"Name":"Nintendo","Offices":{"type":"Point","coordinates":[138.252924,36.204824]}},{"Latitude":-122.415375,"Longitude":37.774321,"Name":"Cerado","Offices":{"type":"Point","coordinates":[-122.415375,37.774321]}},{"Latitude":-121.8731805,"Longitude":37.6637279,"Name":"spigit","Offices":{"type":"Point","coordinates":[-121.8731805,37.6637279]}},{"Latitude":-77.3592746,"Longitude":38.9590083,"Name":"spigit","Offices":{"type":"Point","coordinates":[-77.3592746,38.9590083]}},{"Latitude":-0.1394759,"Longitude":51.5170385,"Name":"spigit","Offices":{"type":"Point","coordinates":[-0.1394759,51.5170385]}},{"Latitude":-73.558082,"Longitude":41.038155,"Name":"Indeed","Offices":{"type":"Point","coordinates":[-73.558082,41.038155]}},{"Latitude":-73.558082,"Longitude":41.038155,"Name":"Indeed","Offices":{"type":"Point","coordinates":[-73.558082,41.038155]}},{"Latitude":-122.18676,"Longitude":37.451026,"Name":"Jaxtr","Offices":{"type":"Point","coordinates":[-122.18676,37.451026]}},{"Latitude":-97.5736,"Longitude":35.612679,"Name":"ONEsite","Offices":{"type":"Point","coordinates":[-97.5736,35.612679]}},{"Latitude":-122.327323,"Longitude":37.536172,"Name":"NetSuite","Offices":{"type":"Point","coordinates":[-122.327323,37.536172]}},{"Latitude":-79.462703,"Longitude":40.30305,"Name":"Wallhogs","Offices":{"type":"Point","coordinates":[-79.462703,40.30305]}},{"Latitude":-122.321836,"Longitude":37.55909,"Name":"Respectance","Offices":{"type":"Point","coordinates":[-122.321836,37.55909]}},{"Latitude":-122.399972,"Longitude":37.787092,"Name":"Curse","Offices":{"type":"Point","coordinates":[-122.399972,37.787092]}},{"Latitude":-122.399972,"Longitude":37.787092,"Name":"Curse","Offices":{"type":"Point","coordinates":[-122.399972,37.787092]}},{"Latitude":-122.327323,"Longitude":37.536172,"Name":"Jaman","Offices":{"type":"Point","coordinates":[-122.327323,37.536172]}},{"Latitude":-122.537302,"Longitude":37.898575,"Name":"GoLightly","Offices":{"type":"Point","coordinates":[-122.537302,37.898575]}},{"Latitude":4.8919457,"Longitude":52.3640933,"Name":"eBuddy","Offices":{"type":"Point","coordinates":[4.8919457,52.3640933]}},{"Latitude":-122.410943,"Longitude":37.787683,"Name":"eBuddy","Offices":{"type":"Point","coordinates":[-122.410943,37.787683]}},{"Latitude":-0.126236,"Longitude":51.500152,"Name":"eBuddy","Offices":{"type":"Point","coordinates":[-0.126236,51.500152]}},{"Latitude":-122.090188,"Longitude":37.419819,"Name":"PeerMe","Offices":{"type":"Point","coordinates":[-122.090188,37.419819]}},{"Latitude":-119.641821,"Longitude":34.42071,"Name":"introNetworks","Offices":{"type":"Point","coordinates":[-119.641821,34.42071]}},{"Latitude":-122.419204,"Longitude":37.775196,"Name":"Grockit","Offices":{"type":"Point","coordinates":[-122.419204,37.775196]}},{"Latitude":-122.402349,"Longitude":37.792394,"Name":"Kiptronic","Offices":{"type":"Point","coordinates":[-122.402349,37.792394]}},{"Latitude":-122.1802812,"Longitude":37.4484914,"Name":"Zenfolio","Offices":{"type":"Point","coordinates":[-122.1802812,37.4484914]}},{"Latitude":-122.417928,"Longitude":37.779392,"Name":"FeVote","Offices":{"type":"Point","coordinates":[-122.417928,37.779392]}},{"Latitude":-111.944967,"Longitude":33.429864,"Name":"JumpBox","Offices":{"type":"Point","coordinates":[-111.944967,33.429864]}},{"Latitude":-122.2262606,"Longitude":37.4858654,"Name":"Vuze","Offices":{"type":"Point","coordinates":[-122.2262606,37.4858654]}},{"Latitude":-121.992132,"Longitude":37.384651,"Name":"LongJump","Offices":{"type":"Point","coordinates":[-121.992132,37.384651]}},{"Latitude":-121.991471,"Longitude":37.386376,"Name":"Phonezoo","Offices":{"type":"Point","coordinates":[-121.991471,37.386376]}},{"Latitude":-121.992132,"Longitude":37.384651,"Name":"Relationals","Offices":{"type":"Point","coordinates":[-121.992132,37.384651]}},{"Latitude":-122.347533,"Longitude":47.620716,"Name":"Wishpot","Offices":{"type":"Point","coordinates":[-122.347533,47.620716]}},{"Latitude":-119.306607,"Longitude":37.269175,"Name":"Nononina","Offices":{"type":"Point","coordinates":[-119.306607,37.269175]}},{"Latitude":-122.154176,"Longitude":37.408256,"Name":"PodTech","Offices":{"type":"Point","coordinates":[-122.154176,37.408256]}},{"Latitude":-123.103986,"Longitude":49.283376,"Name":"NowPublic","Offices":{"type":"Point","coordinates":[-123.103986,49.283376]}},{"Latitude":-122.3276962,"Longitude":47.5999337,"Name":"PayScale","Offices":{"type":"Point","coordinates":[-122.3276962,47.5999337]}},{"Latitude":-118.401579,"Longitude":34.017506,"Name":"Crackle","Offices":{"type":"Point","coordinates":[-118.401579,34.017506]}},{"Latitude":-73.985506,"Longitude":40.757929,"Name":"Clipmarks","Offices":{"type":"Point","coordinates":[-73.985506,40.757929]}},{"Latitude":-83.005038,"Longitude":39.967704,"Name":"DOmedia","Offices":{"type":"Point","coordinates":[-83.005038,39.967704]}},{"Latitude":-73.993302,"Longitude":40.736416,"Name":"Forbes","Offices":{"type":"Point","coordinates":[-73.993302,40.736416]}},{"Latitude":150.981801,"Longitude":-33.722577,"Name":"Boonex","Offices":{"type":"Point","coordinates":[150.981801,-33.722577]}},{"Latitude":-95.712891,"Longitude":37.09024,"Name":"Sony","Offices":{"type":"Point","coordinates":[-95.712891,37.09024]}},{"Latitude":-121.877636,"Longitude":37.320052,"Name":"Adobe Systems","Offices":{"type":"Point","coordinates":[-121.877636,37.320052]}},{"Latitude":-76.77514,"Longitude":39.205649,"Name":"Lotame","Offices":{"type":"Point","coordinates":[-76.77514,39.205649]}},{"Latitude":-73.995487,"Longitude":40.753631,"Name":"Lotame","Offices":{"type":"Point","coordinates":[-73.995487,40.753631]}},{"Latitude":-71.056604,"Longitude":42.359146,"Name":"Lotame","Offices":{"type":"Point","coordinates":[-71.056604,42.359146]}},{"Latitude":-71.056604,"Longitude":42.359146,"Name":"Lotame","Offices":{"type":"Point","coordinates":[-71.056604,42.359146]}},{"Latitude":-71.056604,"Longitude":42.359146,"Name":"Lotame","Offices":{"type":"Point","coordinates":[-71.056604,42.359146]}},{"Latitude":-71.056604,"Longitude":42.359146,"Name":"Lotame","Offices":{"type":"Point","coordinates":[-71.056604,42.359146]}},{"Latitude":-122.395257,"Longitude":37.780883,"Name":"Reddit","Offices":{"type":"Point","coordinates":[-122.395257,37.780883]}},{"Latitude":18.1582777,"Longitude":59.3167843,"Name":"Rebtel","Offices":{"type":"Point","coordinates":[18.1582777,59.3167843]}},{"Latitude":-105.276843,"Longitude":40.010492,"Name":"IntenseDebate","Offices":{"type":"Point","coordinates":[-105.276843,40.010492]}},{"Latitude":-122.034021,"Longitude":37.368594,"Name":"Retrevo","Offices":{"type":"Point","coordinates":[-122.034021,37.368594]}},{"Latitude":-46.679287,"Longitude":-23.558584,"Name":"boo-box","Offices":{"type":"Point","coordinates":[-46.679287,-23.558584]}},{"Latitude":-122.073003,"Longitude":37.400465,"Name":"Buxfer","Offices":{"type":"Point","coordinates":[-122.073003,37.400465]}},{"Latitude":-122.356756,"Longitude":47.61968,"Name":"BuddyTV","Offices":{"type":"Point","coordinates":[-122.356756,47.61968]}},{"Latitude":-121.935688,"Longitude":37.288974,"Name":"Hightail","Offices":{"type":"Point","coordinates":[-121.935688,37.288974]}},{"Latitude":-117.195414,"Longitude":32.89746,"Name":"Qualcomm","Offices":{"type":"Point","coordinates":[-117.195414,32.89746]}},{"Latitude":4.5464658,"Longitude":51.9122575,"Name":"Nimbuzz","Offices":{"type":"Point","coordinates":[4.5464658,51.9122575]}},{"Latitude":4.5464658,"Longitude":51.9122575,"Name":"Nimbuzz","Offices":{"type":"Point","coordinates":[4.5464658,51.9122575]}},{"Latitude":-122.317295,"Longitude":47.5923,"Name":"Amazon","Offices":{"type":"Point","coordinates":[-122.317295,47.5923]}},{"Latitude":-122.115633,"Longitude":47.672229,"Name":"TextPayMe","Offices":{"type":"Point","coordinates":[-122.115633,47.672229]}},{"Latitude":-122.347533,"Longitude":47.620716,"Name":"BillMonk","Offices":{"type":"Point","coordinates":[-122.347533,47.620716]}},{"Latitude":-122.258037,"Longitude":37.524729,"Name":"obopay","Offices":{"type":"Point","coordinates":[-122.258037,37.524729]}},{"Latitude":-122.300246,"Longitude":37.553743,"Name":"TalkPlus","Offices":{"type":"Point","coordinates":[-122.300246,37.553743]}},{"Latitude":-122.084171,"Longitude":37.386665,"Name":"Tangler","Offices":{"type":"Point","coordinates":[-122.084171,37.386665]}},{"Latitude":34.7595,"Longitude":32.0554,"Name":"MeeMix","Offices":{"type":"Point","coordinates":[34.7595,32.0554]}},{"Latitude":-121.927696,"Longitude":37.294465,"Name":"PayPal","Offices":{"type":"Point","coordinates":[-121.927696,37.294465]}},{"Latitude":-118.324987,"Longitude":34.156802,"Name":"The Walt Disney Company","Offices":{"type":"Point","coordinates":[-118.324987,34.156802]}},{"Latitude":-71.258466,"Longitude":42.417268,"Name":"PermissionTV","Offices":{"type":"Point","coordinates":[-71.258466,42.417268]}},{"Latitude":-73.97785,"Longitude":40.797364,"Name":"Rocketboom","Offices":{"type":"Point","coordinates":[-73.97785,40.797364]}},{"Latitude":-95.712891,"Longitude":37.09024,"Name":"WallStrip","Offices":{"type":"Point","coordinates":[-95.712891,37.09024]}},{"Latitude":-118.38428,"Longitude":34.090932,"Name":"Citysearch","Offices":{"type":"Point","coordinates":[-118.38428,34.090932]}},{"Latitude":-71.086596,"Longitude":42.362993,"Name":"Brightcove","Offices":{"type":"Point","coordinates":[-71.086596,42.362993]}},{"Latitude":-71.086596,"Longitude":42.362993,"Name":"Brightcove","Offices":{"type":"Point","coordinates":[-71.086596,42.362993]}},{"Latitude":-71.086596,"Longitude":42.362993,"Name":"Brightcove","Offices":{"type":"Point","coordinates":[-71.086596,42.362993]}},{"Latitude":-71.086596,"Longitude":42.362993,"Name":"Brightcove","Offices":{"type":"Point","coordinates":[-71.086596,42.362993]}},{"Latitude":-71.086596,"Longitude":42.362993,"Name":"Brightcove","Offices":{"type":"Point","coordinates":[-71.086596,42.362993]}},{"Latitude":-71.086596,"Longitude":42.362993,"Name":"Brightcove","Offices":{"type":"Point","coordinates":[-71.086596,42.362993]}},{"Latitude":-71.086596,"Longitude":42.362993,"Name":"Brightcove","Offices":{"type":"Point","coordinates":[-71.086596,42.362993]}},{"Latitude":-118.243425,"Longitude":34.052187,"Name":"WebbAlert","Offices":{"type":"Point","coordinates":[-118.243425,34.052187]}},{"Latitude":-122.396689,"Longitude":37.78554,"Name":"Snapfish","Offices":{"type":"Point","coordinates":[-122.396689,37.78554]}},{"Latitude":-84.350663,"Longitude":33.916374,"Name":"Kaneva","Offices":{"type":"Point","coordinates":[-84.350663,33.916374]}},{"Latitude":-74.007646,"Longitude":40.745172,"Name":"IAC","Offices":{"type":"Point","coordinates":[-74.007646,40.745172]}},{"Latitude":-122.0727749,"Longitude":37.3927975,"Name":"IMVU","Offices":{"type":"Point","coordinates":[-122.0727749,37.3927975]}},{"Latitude":-73.9919311,"Longitude":40.7311317,"Name":"AOL","Offices":{"type":"Point","coordinates":[-73.9919311,40.7311317]}},{"Latitude":-105.276843,"Longitude":40.010492,"Name":"madKast","Offices":{"type":"Point","coordinates":[-105.276843,40.010492]}},{"Latitude":-118.495566,"Longitude":34.01676,"Name":"Userplane","Offices":{"type":"Point","coordinates":[-118.495566,34.01676]}},{"Latitude":-117.210595,"Longitude":32.877656,"Name":"Nirvanix","Offices":{"type":"Point","coordinates":[-117.210595,32.877656]}},{"Latitude":-86.463026,"Longitude":37.018244,"Name":"Outdoorzy","Offices":{"type":"Point","coordinates":[-86.463026,37.018244]}},{"Latitude":-74.761403,"Longitude":40.270666,"Name":"Scrybe","Offices":{"type":"Point","coordinates":[-74.761403,40.270666]}},{"Latitude":34.851612,"Longitude":31.046051,"Name":"Aniboom","Offices":{"type":"Point","coordinates":[34.851612,31.046051]}},{"Latitude":-79.549577,"Longitude":43.76969,"Name":"Webkinz","Offices":{"type":"Point","coordinates":[-79.549577,43.76969]}},{"Latitude":-70.8873327,"Longitude":42.7973978,"Name":"ActiveWorlds","Offices":{"type":"Point","coordinates":[-70.8873327,42.7973978]}},{"Latitude":-70.8873327,"Longitude":42.7973978,"Name":"ActiveWorlds","Offices":{"type":"Point","coordinates":[-70.8873327,42.7973978]}},{"Latitude":24.945937,"Longitude":60.165166,"Name":"Sulake","Offices":{"type":"Point","coordinates":[24.945937,60.165166]}},{"Latitude":-95.712891,"Longitude":37.09024,"Name":"Neopets","Offices":{"type":"Point","coordinates":[-95.712891,37.09024]}},{"Latitude":34.851612,"Longitude":31.046051,"Name":"KnockaTV","Offices":{"type":"Point","coordinates":[34.851612,31.046051]}},{"Latitude":-0.126236,"Longitude":51.500152,"Name":"Viagogo","Offices":{"type":"Point","coordinates":[-0.126236,51.500152]}},{"Latitude":-95.712891,"Longitude":37.09024,"Name":"Millsberry","Offices":{"type":"Point","coordinates":[-95.712891,37.09024]}},{"Latitude":-122.159928,"Longitude":37.437328,"Name":"Hewlett-Packard","Offices":{"type":"Point","coordinates":[-122.159928,37.437328]}},{"Latitude":-122.159928,"Longitude":37.437328,"Name":"Hewlett-Packard","Offices":{"type":"Point","coordinates":[-122.159928,37.437328]}},{"Latitude":-122.1879633,"Longitude":38.0729365,"Name":"Echo","Offices":{"type":"Point","coordinates":[-122.1879633,38.0729365]}},{"Latitude":-117.265191,"Longitude":32.964294,"Name":"GreatCall","Offices":{"type":"Point","coordinates":[-117.265191,32.964294]}},{"Latitude":-81.788104,"Longitude":26.246414,"Name":"INgage Networks","Offices":{"type":"Point","coordinates":[-81.788104,26.246414]}},{"Latitude":-81.788104,"Longitude":26.246414,"Name":"INgage Networks","Offices":{"type":"Point","coordinates":[-81.788104,26.246414]}},{"Latitude":-73.990004,"Longitude":40.740251,"Name":"SelectMinds","Offices":{"type":"Point","coordinates":[-73.990004,40.740251]}},{"Latitude":-118.243425,"Longitude":34.052187,"Name":"Revver","Offices":{"type":"Point","coordinates":[-118.243425,34.052187]}},{"Latitude":-117.167831,"Longitude":32.720656,"Name":"MindTouch","Offices":{"type":"Point","coordinates":[-117.167831,32.720656]}},{"Latitude":-77.081732,"Longitude":38.892371,"Name":"Pickle","Offices":{"type":"Point","coordinates":[-77.081732,38.892371]}},{"Latitude":-105.276843,"Longitude":40.010492,"Name":"Techstars","Offices":{"type":"Point","coordinates":[-105.276843,40.010492]}},{"Latitude":-122.159928,"Longitude":37.437328,"Name":"Metacafe","Offices":{"type":"Point","coordinates":[-122.159928,37.437328]}},{"Latitude":-86.130347,"Longitude":39.998641,"Name":"ChaCha","Offices":{"type":"Point","coordinates":[-86.130347,39.998641]}},{"Latitude":-86.130347,"Longitude":39.998641,"Name":"ChaCha","Offices":{"type":"Point","coordinates":[-86.130347,39.998641]}},{"Latitude":-122.228843,"Longitude":37.491356,"Name":"Flock","Offices":{"type":"Point","coordinates":[-122.228843,37.491356]}},{"Latitude":-96.76492,"Longitude":17.08881,"Name":"Sportingo","Offices":{"type":"Point","coordinates":[-96.76492,17.08881]}},{"Latitude":-122.411157,"Longitude":37.767575,"Name":"Kontera","Offices":{"type":"Point","coordinates":[-122.411157,37.767575]}},{"Latitude":-95.712891,"Longitude":37.09024,"Name":"Splashup","Offices":{"type":"Point","coordinates":[-95.712891,37.09024]}},{"Latitude":-71.08907,"Longitude":42.364059,"Name":"Akamai Technologies","Offices":{"type":"Point","coordinates":[-71.08907,42.364059]}},{"Latitude":-122.4084994,"Longitude":37.7909427,"Name":"Dropbox","Offices":{"type":"Point","coordinates":[-122.4084994,37.7909427]}},{"Latitude":-122.4084994,"Longitude":37.7909427,"Name":"Dropbox","Offices":{"type":"Point","coordinates":[-122.4084994,37.7909427]}},{"Latitude":-123.138565,"Longitude":49.263588,"Name":"SomethingSimpler","Offices":{"type":"Point","coordinates":[-123.138565,49.263588]}},{"Latitude":-1.197534,"Longitude":51.785428,"Name":"Curverider","Offices":{"type":"Point","coordinates":[-1.197534,51.785428]}},{"Latitude":-122.39071,"Longitude":37.779507,"Name":"TokBox","Offices":{"type":"Point","coordinates":[-122.39071,37.779507]}},{"Latitude":-122.39071,"Longitude":37.779507,"Name":"TokBox","Offices":{"type":"Point","coordinates":[-122.39071,37.779507]}},{"Latitude":-122.39071,"Longitude":37.779507,"Name":"TokBox","Offices":{"type":"Point","coordinates":[-122.39071,37.779507]}},{"Latitude":-122.39071,"Longitude":37.779507,"Name":"TokBox","Offices":{"type":"Point","coordinates":[-122.39071,37.779507]}},{"Latitude":-122.135521,"Longitude":47.682233,"Name":"Sampa","Offices":{"type":"Point","coordinates":[-122.135521,47.682233]}},{"Latitude":139.7326754,"Longitude":35.6725213,"Name":"Six Apart","Offices":{"type":"Point","coordinates":[139.7326754,35.6725213]}},{"Latitude":-122.3954751,"Longitude":37.7911148,"Name":"Yola","Offices":{"type":"Point","coordinates":[-122.3954751,37.7911148]}},{"Latitude":-122.3954751,"Longitude":37.7911148,"Name":"Yola","Offices":{"type":"Point","coordinates":[-122.3954751,37.7911148]}},{"Latitude":-122.401245,"Longitude":37.786942,"Name":"Kongregate","Offices":{"type":"Point","coordinates":[-122.401245,37.786942]}},{"Latitude":-122.407959,"Longitude":37.781557,"Name":"DanceJam","Offices":{"type":"Point","coordinates":[-122.407959,37.781557]}},{"Latitude":-122.400729,"Longitude":37.795555,"Name":"Weebly","Offices":{"type":"Point","coordinates":[-122.400729,37.795555]}},{"Latitude":-122.394668,"Longitude":37.790998,"Name":"BitTorrent","Offices":{"type":"Point","coordinates":[-122.394668,37.790998]}},{"Latitude":-122.3229235,"Longitude":37.5646055,"Name":"Inneractive","Offices":{"type":"Point","coordinates":[-122.3229235,37.5646055]}},{"Latitude":-104.982256,"Longitude":39.762314,"Name":"Brightkite","Offices":{"type":"Point","coordinates":[-104.982256,39.762314]}},{"Latitude":-105.276843,"Longitude":40.010492,"Name":"Filtrbox","Offices":{"type":"Point","coordinates":[-105.276843,40.010492]}},{"Latitude":-122.159928,"Longitude":37.437328,"Name":"Bountii","Offices":{"type":"Point","coordinates":[-122.159928,37.437328]}},{"Latitude":-79.948563,"Longitude":40.445009,"Name":"SlapVid","Offices":{"type":"Point","coordinates":[-79.948563,40.445009]}},{"Latitude":-122.007172,"Longitude":37.383779,"Name":"Eventbee","Offices":{"type":"Point","coordinates":[-122.007172,37.383779]}},{"Latitude":-105.276843,"Longitude":40.010492,"Name":"EventVue","Offices":{"type":"Point","coordinates":[-105.276843,40.010492]}},{"Latitude":-71.05781,"Longitude":42.35892,"Name":"Cloudant","Offices":{"type":"Point","coordinates":[-71.05781,42.35892]}},{"Latitude":-105.2762236,"Longitude":40.0186731,"Name":"Socialthing","Offices":{"type":"Point","coordinates":[-105.2762236,40.0186731]}},{"Latitude":-95.712891,"Longitude":37.09024,"Name":"Guba","Offices":{"type":"Point","coordinates":[-95.712891,37.09024]}},{"Latitude":-95.712891,"Longitude":37.09024,"Name":"GoFish","Offices":{"type":"Point","coordinates":[-95.712891,37.09024]}},{"Latitude":-122.4147,"Longitude":37.762125,"Name":"Kiva","Offices":{"type":"Point","coordinates":[-122.4147,37.762125]}},{"Latitude":-73.971655,"Longitude":40.751816,"Name":"KIT digital","Offices":{"type":"Point","coordinates":[-73.971655,40.751816]}},{"Latitude":-73.971655,"Longitude":40.751816,"Name":"KIT digital","Offices":{"type":"Point","coordinates":[-73.971655,40.751816]}},{"Latitude":-73.971655,"Longitude":40.751816,"Name":"KIT digital","Offices":{"type":"Point","coordinates":[-73.971655,40.751816]}},{"Latitude":-73.971655,"Longitude":40.751816,"Name":"KIT digital","Offices":{"type":"Point","coordinates":[-73.971655,40.751816]}},{"Latitude":18.0580765,"Longitude":59.3369746,"Name":"KIT digital","Offices":{"type":"Point","coordinates":[18.0580765,59.3369746]}},{"Latitude":18.0580765,"Longitude":59.3369746,"Name":"KIT digital","Offices":{"type":"Point","coordinates":[18.0580765,59.3369746]}},{"Latitude":18.0580765,"Longitude":59.3369746,"Name":"KIT digital","Offices":{"type":"Point","coordinates":[18.0580765,59.3369746]}},{"Latitude":18.0580765,"Longitude":59.3369746,"Name":"KIT digital","Offices":{"type":"Point","coordinates":[18.0580765,59.3369746]}},{"Latitude":-79.5983626,"Longitude":43.6587599,"Name":"KIT digital","Offices":{"type":"Point","coordinates":[-79.5983626,43.6587599]}},{"Latitude":-79.5983626,"Longitude":43.6587599,"Name":"KIT digital","Offices":{"type":"Point","coordinates":[-79.5983626,43.6587599]}},{"Latitude":-122.419204,"Longitude":37.775196,"Name":"Fathom Online","Offices":{"type":"Point","coordinates":[-122.419204,37.775196]}},{"Latitude":-0.139947,"Longitude":51.517904,"Name":"Zopa","Offices":{"type":"Point","coordinates":[-0.139947,51.517904]}},{"Latitude":-118.348198,"Longitude":34.062262,"Name":"SuicideGirls","Offices":{"type":"Point","coordinates":[-118.348198,34.062262]}},{"Latitude":-122.397593,"Longitude":37.789488,"Name":"Zivity","Offices":{"type":"Point","coordinates":[-122.397593,37.789488]}},{"Latitude":-121.948399,"Longitude":37.32052,"Name":"BlueLithium","Offices":{"type":"Point","coordinates":[-121.948399,37.32052]}},{"Latitude":-117.163353,"Longitude":32.71537,"Name":"Goowy","Offices":{"type":"Point","coordinates":[-117.163353,32.71537]}},{"Latitude":-122.121932,"Longitude":37.451637,"Name":"eXpresso","Offices":{"type":"Point","coordinates":[-122.121932,37.451637]}},{"Latitude":-122.205016,"Longitude":37.450128,"Name":"InviteShare","Offices":{"type":"Point","coordinates":[-122.205016,37.450128]}},{"Latitude":-122.164511,"Longitude":37.444554,"Name":"A9","Offices":{"type":"Point","coordinates":[-122.164511,37.444554]}},{"Latitude":-122.145783,"Longitude":37.427235,"Name":"Doostang","Offices":{"type":"Point","coordinates":[-122.145783,37.427235]}},{"Latitude":-74.010808,"Longitude":40.71014,"Name":"ContextWeb","Offices":{"type":"Point","coordinates":[-74.010808,40.71014]}},{"Latitude":-118.372953,"Longitude":34.076061,"Name":"MySpace","Offices":{"type":"Point","coordinates":[-118.372953,34.076061]}},{"Latitude":-122.1490582,"Longitude":37.4459832,"Name":"TechCrunch","Offices":{"type":"Point","coordinates":[-122.1490582,37.4459832]}},{"Latitude":-121.955463,"Longitude":37.394791,"Name":"Sun Microsystems","Offices":{"type":"Point","coordinates":[-121.955463,37.394791]}},{"Latitude":-71.207055,"Longitude":42.38532,"Name":"ZoomInfo","Offices":{"type":"Point","coordinates":[-71.207055,42.38532]}},{"Latitude":-115.064859,"Longitude":36.032976,"Name":"Zappos","Offices":{"type":"Point","coordinates":[-115.064859,36.032976]}},{"Latitude":-115.064859,"Longitude":36.032976,"Name":"Zappos","Offices":{"type":"Point","coordinates":[-115.064859,36.032976]}},{"Latitude":-118.495025,"Longitude":34.018275,"Name":"Docstoc","Offices":{"type":"Point","coordinates":[-118.495025,34.018275]}},{"Latitude":-122.155668,"Longitude":47.579208,"Name":"Zango","Offices":{"type":"Point","coordinates":[-122.155668,47.579208]}},{"Latitude":-95.712891,"Longitude":37.09024,"Name":"DotBlu","Offices":{"type":"Point","coordinates":[-95.712891,37.09024]}},{"Latitude":-71.118999,"Longitude":42.372912,"Name":"Vlingo","Offices":{"type":"Point","coordinates":[-71.118999,42.372912]}},{"Latitude":-0.1433689,"Longitude":51.5194201,"Name":"Covestor","Offices":{"type":"Point","coordinates":[-0.1433689,51.5194201]}},{"Latitude":-97.745209,"Longitude":30.268735,"Name":"Pluck","Offices":{"type":"Point","coordinates":[-97.745209,30.268735]}},{"Latitude":-104.988123,"Longitude":39.755092,"Name":"NewsGator","Offices":{"type":"Point","coordinates":[-104.988123,39.755092]}},{"Latitude":-122.072981,"Longitude":37.40047,"Name":"BitPass","Offices":{"type":"Point","coordinates":[-122.072981,37.40047]}},{"Latitude":-95.712891,"Longitude":37.09024,"Name":"Kelkoo","Offices":{"type":"Point","coordinates":[-95.712891,37.09024]}},{"Latitude":-122.339859,"Longitude":47.610332,"Name":"Shock Treatment Management","Offices":{"type":"Point","coordinates":[-122.339859,47.610332]}},{"Latitude":-118.432526,"Longitude":33.983543,"Name":"CinemaNow","Offices":{"type":"Point","coordinates":[-118.432526,33.983543]}},{"Latitude":-122.265869,"Longitude":37.524422,"Name":"sezmi","Offices":{"type":"Point","coordinates":[-122.265869,37.524422]}},{"Latitude":-118.453218,"Longitude":34.017373,"Name":"sezmi","Offices":{"type":"Point","coordinates":[-118.453218,34.017373]}},{"Latitude":-80.157296,"Longitude":26.207024,"Name":"sezmi","Offices":{"type":"Point","coordinates":[-80.157296,26.207024]}},{"Latitude":-122.392142,"Longitude":37.782263,"Name":"Mevio","Offices":{"type":"Point","coordinates":[-122.392142,37.782263]}},{"Latitude":-73.98962,"Longitude":40.753385,"Name":"Heavy","Offices":{"type":"Point","coordinates":[-73.98962,40.753385]}},{"Latitude":101.686855,"Longitude":3.139003,"Name":"Friendster","Offices":{"type":"Point","coordinates":[101.686855,3.139003]}},{"Latitude":-73.991933,"Longitude":40.731118,"Name":"Nielsen","Offices":{"type":"Point","coordinates":[-73.991933,40.731118]}},{"Latitude":-95.712891,"Longitude":37.09024,"Name":"MusicGremlin","Offices":{"type":"Point","coordinates":[-95.712891,37.09024]}},{"Latitude":-122.39323,"Longitude":37.710677,"Name":"Greystripe","Offices":{"type":"Point","coordinates":[-122.39323,37.710677]}},{"Latitude":-77.2630048,"Longitude":39.2009241,"Name":"WeatherBug","Offices":{"type":"Point","coordinates":[-77.2630048,39.2009241]}},{"Latitude":-72.188584,"Longitude":41.53155,"Name":"ReachLocal","Offices":{"type":"Point","coordinates":[-72.188584,41.53155]}},{"Latitude":-79.338246,"Longitude":43.7192415,"Name":"ReachLocal","Offices":{"type":"Point","coordinates":[-79.338246,43.7192415]}},{"Latitude":-79.338246,"Longitude":43.7192415,"Name":"ReachLocal","Offices":{"type":"Point","coordinates":[-79.338246,43.7192415]}},{"Latitude":-79.338246,"Longitude":43.7192415,"Name":"ReachLocal","Offices":{"type":"Point","coordinates":[-79.338246,43.7192415]}},{"Latitude":-79.338246,"Longitude":43.7192415,"Name":"ReachLocal","Offices":{"type":"Point","coordinates":[-79.338246,43.7192415]}},{"Latitude":-118.132351,"Longitude":34.145946,"Name":"eHarmony","Offices":{"type":"Point","coordinates":[-118.132351,34.145946]}},{"Latitude":-122.406676,"Longitude":37.766909,"Name":"Trulia","Offices":{"type":"Point","coordinates":[-122.406676,37.766909]}},{"Latitude":-118.423423,"Longitude":33.979033,"Name":"DAVE Networks","Offices":{"type":"Point","coordinates":[-118.423423,33.979033]}},{"Latitude":-118.439787,"Longitude":33.979506,"Name":"DAVE Networks","Offices":{"type":"Point","coordinates":[-118.439787,33.979506]}},{"Latitude":-95.712891,"Longitude":37.09024,"Name":"TechTarget","Offices":{"type":"Point","coordinates":[-95.712891,37.09024]}},{"Latitude":-122.286493,"Longitude":37.836957,"Name":"TubeMogul","Offices":{"type":"Point","coordinates":[-122.286493,37.836957]}},{"Latitude":-3.435973,"Longitude":55.378051,"Name":"dpreview","Offices":{"type":"Point","coordinates":[-3.435973,55.378051]}},{"Latitude":-95.712891,"Longitude":37.09024,"Name":"Shopzilla","Offices":{"type":"Point","coordinates":[-95.712891,37.09024]}},{"Latitude":-95.712891,"Longitude":37.09024,"Name":"Shopzilla","Offices":{"type":"Point","coordinates":[-95.712891,37.09024]}},{"Latitude":-95.712891,"Longitude":37.09024,"Name":"Shopzilla","Offices":{"type":"Point","coordinates":[-95.712891,37.09024]}},{"Latitude":-95.712891,"Longitude":37.09024,"Name":"Shopzilla","Offices":{"type":"Point","coordinates":[-95.712891,37.09024]}},{"Latitude":-95.712891,"Longitude":37.09024,"Name":"Lastminute","Offices":{"type":"Point","coordinates":[-95.712891,37.09024]}},{"Latitude":-97.1599393,"Longitude":32.9819881,"Name":"Sabre","Offices":{"type":"Point","coordinates":[-97.1599393,32.9819881]}},{"Latitude":-95.712891,"Longitude":37.09024,"Name":"SpiralFrog","Offices":{"type":"Point","coordinates":[-95.712891,37.09024]}},{"Latitude":-95.712891,"Longitude":37.09024,"Name":"Netblue","Offices":{"type":"Point","coordinates":[-95.712891,37.09024]}},{"Latitude":-122.317471,"Longitude":37.554595,"Name":"NexTag","Offices":{"type":"Point","coordinates":[-122.317471,37.554595]}},{"Latitude":-80.097742,"Longitude":26.400499,"Name":"Multiply","Offices":{"type":"Point","coordinates":[-80.097742,26.400499]}},{"Latitude":-80.097742,"Longitude":26.400499,"Name":"Multiply","Offices":{"type":"Point","coordinates":[-80.097742,26.400499]}},{"Latitude":-95.712891,"Longitude":37.09024,"Name":"Sportsline","Offices":{"type":"Point","coordinates":[-95.712891,37.09024]}},{"Latitude":-0.1418973,"Longitude":51.5108803,"Name":"Seedcamp","Offices":{"type":"Point","coordinates":[-0.1418973,51.5108803]}},{"Latitude":-122.169472,"Longitude":37.48413,"Name":"LimeLife","Offices":{"type":"Point","coordinates":[-122.169472,37.48413]}},{"Latitude":-95.712891,"Longitude":37.09024,"Name":"Digitas","Offices":{"type":"Point","coordinates":[-95.712891,37.09024]}},{"Latitude":2.2673953,"Longitude":48.882314,"Name":"Digitas","Offices":{"type":"Point","coordinates":[2.2673953,48.882314]}},{"Latitude":-122.405265,"Longitude":37.785647,"Name":"OpenTable","Offices":{"type":"Point","coordinates":[-122.405265,37.785647]}},{"Latitude":-95.712891,"Longitude":37.09024,"Name":"Espotting","Offices":{"type":"Point","coordinates":[-95.712891,37.09024]}},{"Latitude":-73.9932793,"Longitude":40.733276,"Name":"MIVA","Offices":{"type":"Point","coordinates":[-73.9932793,40.733276]}},{"Latitude":-75.066111,"Longitude":3.046111,"Name":"airG","Offices":{"type":"Point","coordinates":[-75.066111,3.046111]}},{"Latitude":-122.151158,"Longitude":47.597965,"Name":"YouBeQB","Offices":{"type":"Point","coordinates":[-122.151158,47.597965]}},{"Latitude":-71.104329,"Longitude":42.358822,"Name":"LocaModa","Offices":{"type":"Point","coordinates":[-71.104329,42.358822]}},{"Latitude":-90.216499,"Longitude":38.618874,"Name":"RampedMedia","Offices":{"type":"Point","coordinates":[-90.216499,38.618874]}},{"Latitude":-80.856178,"Longitude":35.22806,"Name":"Yap","Offices":{"type":"Point","coordinates":[-80.856178,35.22806]}},{"Latitude":-94.597896,"Longitude":39.044694,"Name":"Adknowledge","Offices":{"type":"Point","coordinates":[-94.597896,39.044694]}},{"Latitude":-73.992463,"Longitude":40.748901,"Name":"Adknowledge","Offices":{"type":"Point","coordinates":[-73.992463,40.748901]}},{"Latitude":-122.401406,"Longitude":37.78866,"Name":"Adknowledge","Offices":{"type":"Point","coordinates":[-122.401406,37.78866]}},{"Latitude":-81.879069,"Longitude":26.580095,"Name":"Adknowledge","Offices":{"type":"Point","coordinates":[-81.879069,26.580095]}},{"Latitude":-79.3953743,"Longitude":43.6474554,"Name":"Adknowledge","Offices":{"type":"Point","coordinates":[-79.3953743,43.6474554]}},{"Latitude":-0.1229212,"Longitude":51.5114403,"Name":"Adknowledge","Offices":{"type":"Point","coordinates":[-0.1229212,51.5114403]}},{"Latitude":11.5582609,"Longitude":48.1635092,"Name":"Adknowledge","Offices":{"type":"Point","coordinates":[11.5582609,48.1635092]}},{"Latitude":2.3797825,"Longitude":48.8506065,"Name":"Adknowledge","Offices":{"type":"Point","coordinates":[2.3797825,48.8506065]}},{"Latitude":121.4770384,"Longitude":31.222622,"Name":"Adknowledge","Offices":{"type":"Point","coordinates":[121.4770384,31.222622]}},{"Latitude":-78.815635,"Longitude":35.854483,"Name":"ChannelAdvisor","Offices":{"type":"Point","coordinates":[-78.815635,35.854483]}},{"Latitude":-71.058768,"Longitude":42.350274,"Name":"MocoSpace","Offices":{"type":"Point","coordinates":[-71.058768,42.350274]}},{"Latitude":-71.399771,"Longitude":41.841713,"Name":"Tizra","Offices":{"type":"Point","coordinates":[-71.399771,41.841713]}},{"Latitude":77.594376,"Longitude":12.971606,"Name":"Minglebox","Offices":{"type":"Point","coordinates":[77.594376,12.971606]}},{"Latitude":18.0571198,"Longitude":59.3339908,"Name":"TestFreaks","Offices":{"type":"Point","coordinates":[18.0571198,59.3339908]}},{"Latitude":-95.712891,"Longitude":37.09024,"Name":"BlogSigs","Offices":{"type":"Point","coordinates":[-95.712891,37.09024]}},{"Latitude":-71.248472,"Longitude":42.3729,"Name":"Quattro Wireless","Offices":{"type":"Point","coordinates":[-71.248472,42.3729]}},{"Latitude":-73.9874008,"Longitude":40.7445343,"Name":"BBE","Offices":{"type":"Point","coordinates":[-73.9874008,40.7445343]}},{"Latitude":-73.985506,"Longitude":40.757929,"Name":"Fotolog","Offices":{"type":"Point","coordinates":[-73.985506,40.757929]}},{"Latitude":-73.997395,"Longitude":40.725435,"Name":"Thumbplay","Offices":{"type":"Point","coordinates":[-73.997395,40.725435]}},{"Latitude":-118.49863,"Longitude":34.0184659,"Name":"Xfire","Offices":{"type":"Point","coordinates":[-118.49863,34.0184659]}},{"Latitude":-71.255855,"Longitude":42.393662,"Name":"Lycos","Offices":{"type":"Point","coordinates":[-71.255855,42.393662]}},{"Latitude":-122.128772,"Longitude":37.433414,"Name":"SnapTell","Offices":{"type":"Point","coordinates":[-122.128772,37.433414]}},{"Latitude":-73.985506,"Longitude":40.757929,"Name":"iVillage","Offices":{"type":"Point","coordinates":[-73.985506,40.757929]}},{"Latitude":-0.1626103,"Longitude":51.5192042,"Name":"Wonga","Offices":{"type":"Point","coordinates":[-0.1626103,51.5192042]}},{"Latitude":-122.336825,"Longitude":47.611201,"Name":"Marchex","Offices":{"type":"Point","coordinates":[-122.336825,47.611201]}},{"Latitude":-95.712891,"Longitude":37.09024,"Name":"PriceGrabber","Offices":{"type":"Point","coordinates":[-95.712891,37.09024]}},{"Latitude":-122.419204,"Longitude":37.775196,"Name":"MicroPlace","Offices":{"type":"Point","coordinates":[-122.419204,37.775196]}},{"Latitude":-122.3276962,"Longitude":47.5999337,"Name":"EyeJot","Offices":{"type":"Point","coordinates":[-122.3276962,47.5999337]}},{"Latitude":-79.348037,"Longitude":43.799511,"Name":"Contrastream","Offices":{"type":"Point","coordinates":[-79.348037,43.799511]}},{"Latitude":34.856173,"Longitude":32.029748,"Name":"MyHeritage","Offices":{"type":"Point","coordinates":[34.856173,32.029748]}},{"Latitude":-97.753739,"Longitude":30.386601,"Name":"Spiceworks","Offices":{"type":"Point","coordinates":[-97.753739,30.386601]}},{"Latitude":-74.004792,"Longitude":40.707921,"Name":"Tutor","Offices":{"type":"Point","coordinates":[-74.004792,40.707921]}},{"Latitude":-71.262508,"Longitude":42.47218,"Name":"OnForce","Offices":{"type":"Point","coordinates":[-71.262508,42.47218]}},{"Latitude":5.659066,"Longitude":45.206889,"Name":"CrowdSpirit","Offices":{"type":"Point","coordinates":[5.659066,45.206889]}},{"Latitude":-122.143915,"Longitude":37.42746,"Name":"SayNow","Offices":{"type":"Point","coordinates":[-122.143915,37.42746]}},{"Latitude":-74.001704,"Longitude":40.723384,"Name":"OMGPOP","Offices":{"type":"Point","coordinates":[-74.001704,40.723384]}},{"Latitude":-74.001704,"Longitude":40.723384,"Name":"OMGPOP","Offices":{"type":"Point","coordinates":[-74.001704,40.723384]}},{"Latitude":-73.886452,"Longitude":40.643438,"Name":"Daylife","Offices":{"type":"Point","coordinates":[-73.886452,40.643438]}},{"Latitude":-122.393229,"Longitude":37.781265,"Name":"Crunchyroll","Offices":{"type":"Point","coordinates":[-122.393229,37.781265]}},{"Latitude":4.400604,"Longitude":50.796645,"Name":"ContactOffice","Offices":{"type":"Point","coordinates":[4.400604,50.796645]}},{"Latitude":-121.973228,"Longitude":37.387114,"Name":"PixSense","Offices":{"type":"Point","coordinates":[-121.973228,37.387114]}},{"Latitude":-122.084171,"Longitude":37.386665,"Name":"Ooyala","Offices":{"type":"Point","coordinates":[-122.084171,37.386665]}},{"Latitude":-122.084171,"Longitude":37.386665,"Name":"Ooyala","Offices":{"type":"Point","coordinates":[-122.084171,37.386665]}},{"Latitude":-122.084171,"Longitude":37.386665,"Name":"Ooyala","Offices":{"type":"Point","coordinates":[-122.084171,37.386665]}},{"Latitude":-122.084171,"Longitude":37.386665,"Name":"Ooyala","Offices":{"type":"Point","coordinates":[-122.084171,37.386665]}},{"Latitude":-117.572967,"Longitude":34.099253,"Name":"ThemBid","Offices":{"type":"Point","coordinates":[-117.572967,34.099253]}},{"Latitude":-93.4094629,"Longitude":44.865243,"Name":"Yugma","Offices":{"type":"Point","coordinates":[-93.4094629,44.865243]}},{"Latitude":-74.004592,"Longitude":40.74406,"Name":"Behance","Offices":{"type":"Point","coordinates":[-74.004592,40.74406]}},{"Latitude":-0.1065551,"Longitude":51.5195795,"Name":"FAROO","Offices":{"type":"Point","coordinates":[-0.1065551,51.5195795]}},{"Latitude":-118.456806,"Longitude":34.031276,"Name":"hulu","Offices":{"type":"Point","coordinates":[-118.456806,34.031276]}},{"Latitude":-122.324621,"Longitude":37.563585,"Name":"AdMob","Offices":{"type":"Point","coordinates":[-122.324621,37.563585]}},{"Latitude":-122.228595,"Longitude":37.453687,"Name":"Attributor","Offices":{"type":"Point","coordinates":[-122.228595,37.453687]}},{"Latitude":-73.986771,"Longitude":40.753202,"Name":"LineUpNewYork","Offices":{"type":"Point","coordinates":[-73.986771,40.753202]}},{"Latitude":-73.981709,"Longitude":40.775537,"Name":"OrganizedWisdom","Offices":{"type":"Point","coordinates":[-73.981709,40.775537]}},{"Latitude":-122.333523,"Longitude":47.611012,"Name":"MediaPops","Offices":{"type":"Point","coordinates":[-122.333523,47.611012]}},{"Latitude":-122.4194155,"Longitude":37.7749295,"Name":"BeFunky","Offices":{"type":"Point","coordinates":[-122.4194155,37.7749295]}},{"Latitude":-97.770174,"Longitude":30.34497,"Name":"GotStatus","Offices":{"type":"Point","coordinates":[-97.770174,30.34497]}},{"Latitude":-111.777531,"Longitude":40.357978,"Name":"Mozy","Offices":{"type":"Point","coordinates":[-111.777531,40.357978]}},{"Latitude":-122.391236,"Longitude":37.779624,"Name":"imeem","Offices":{"type":"Point","coordinates":[-122.391236,37.779624]}},{"Latitude":-105.38018,"Longitude":40.048078,"Name":"Kerpoof","Offices":{"type":"Point","coordinates":[-105.38018,40.048078]}},{"Latitude":-72.105722,"Longitude":41.345754,"Name":"ITema","Offices":{"type":"Point","coordinates":[-72.105722,41.345754]}},{"Latitude":-79.420926,"Longitude":38.003376,"Name":"Mixx","Offices":{"type":"Point","coordinates":[-79.420926,38.003376]}},{"Latitude":-122.156579,"Longitude":37.446668,"Name":"PubMatic","Offices":{"type":"Point","coordinates":[-122.156579,37.446668]}},{"Latitude":-122.156579,"Longitude":37.446668,"Name":"PubMatic","Offices":{"type":"Point","coordinates":[-122.156579,37.446668]}},{"Latitude":-122.156579,"Longitude":37.446668,"Name":"PubMatic","Offices":{"type":"Point","coordinates":[-122.156579,37.446668]}},{"Latitude":-122.156579,"Longitude":37.446668,"Name":"PubMatic","Offices":{"type":"Point","coordinates":[-122.156579,37.446668]}},{"Latitude":-117.274609,"Longitude":32.847521,"Name":"app2you","Offices":{"type":"Point","coordinates":[-117.274609,32.847521]}},{"Latitude":-118.4419012,"Longitude":34.0481711,"Name":"Orgoo","Offices":{"type":"Point","coordinates":[-118.4419012,34.0481711]}},{"Latitude":-122.402021,"Longitude":37.764169,"Name":"TripIt","Offices":{"type":"Point","coordinates":[-122.402021,37.764169]}},{"Latitude":6.182658,"Longitude":49.1004,"Name":"HylioSoft","Offices":{"type":"Point","coordinates":[6.182658,49.1004]}},{"Latitude":-122.421341,"Longitude":37.793742,"Name":"YourStreet","Offices":{"type":"Point","coordinates":[-122.421341,37.793742]}},{"Latitude":-87.621982,"Longitude":41.892774,"Name":"PrepMe","Offices":{"type":"Point","coordinates":[-87.621982,41.892774]}},{"Latitude":-122.161247,"Longitude":37.445714,"Name":"GlobalMotion","Offices":{"type":"Point","coordinates":[-122.161247,37.445714]}},{"Latitude":-79.396805,"Longitude":43.6501051,"Name":"Zerofootprint","Offices":{"type":"Point","coordinates":[-79.396805,43.6501051]}},{"Latitude":-73.566634,"Longitude":45.506643,"Name":"SmartHippo","Offices":{"type":"Point","coordinates":[-73.566634,45.506643]}},{"Latitude":-122.675448,"Longitude":45.5241278,"Name":"Vidoop","Offices":{"type":"Point","coordinates":[-122.675448,45.5241278]}},{"Latitude":-77.123153,"Longitude":39.052614,"Name":"Snoozester","Offices":{"type":"Point","coordinates":[-77.123153,39.052614]}},{"Latitude":-106.346771,"Longitude":56.130366,"Name":"IPartee","Offices":{"type":"Point","coordinates":[-106.346771,56.130366]}},{"Latitude":-122.335943,"Longitude":47.6015315,"Name":"FlowPlay","Offices":{"type":"Point","coordinates":[-122.335943,47.6015315]}},{"Latitude":-122.084356,"Longitude":47.585114,"Name":"Feedjit","Offices":{"type":"Point","coordinates":[-122.084356,47.585114]}},{"Latitude":2.3365754,"Longitude":48.8558532,"Name":"Trivop","Offices":{"type":"Point","coordinates":[2.3365754,48.8558532]}},{"Latitude":-116.205637,"Longitude":43.61295,"Name":"Balihoo","Offices":{"type":"Point","coordinates":[-116.205637,43.61295]}},{"Latitude":-87.63406,"Longitude":41.890376,"Name":"Viewpoints","Offices":{"type":"Point","coordinates":[-87.63406,41.890376]}},{"Latitude":-95.536,"Longitude":30.182107,"Name":"IMSafer","Offices":{"type":"Point","coordinates":[-95.536,30.182107]}},{"Latitude":-71.238524,"Longitude":42.296111,"Name":"RatePoint","Offices":{"type":"Point","coordinates":[-71.238524,42.296111]}},{"Latitude":-105.276843,"Longitude":40.010492,"Name":"Iggli","Offices":{"type":"Point","coordinates":[-105.276843,40.010492]}},{"Latitude":-122.20052,"Longitude":47.617842,"Name":"Smartsheet","Offices":{"type":"Point","coordinates":[-122.20052,47.617842]}},{"Latitude":-118.493592,"Longitude":34.01533,"Name":"ThisNext","Offices":{"type":"Point","coordinates":[-118.493592,34.01533]}},{"Latitude":-105.28131,"Longitude":40.01621,"Name":"OneRiot","Offices":{"type":"Point","coordinates":[-105.28131,40.01621]}},{"Latitude":-122.3396627,"Longitude":47.6104101,"Name":"Avvo","Offices":{"type":"Point","coordinates":[-122.3396627,47.6104101]}},{"Latitude":-95.712891,"Longitude":37.09024,"Name":"Tumri","Offices":{"type":"Point","coordinates":[-95.712891,37.09024]}},{"Latitude":-83.913153,"Longitude":43.67084,"Name":"ChessPark","Offices":{"type":"Point","coordinates":[-83.913153,43.67084]}},{"Latitude":-122.034021,"Longitude":37.368594,"Name":"MuseStorm","Offices":{"type":"Point","coordinates":[-122.034021,37.368594]}},{"Latitude":-73.9912208,"Longitude":40.7413559,"Name":"Clickable","Offices":{"type":"Point","coordinates":[-73.9912208,40.7413559]}},{"Latitude":-73.9912208,"Longitude":40.7413559,"Name":"Clickable","Offices":{"type":"Point","coordinates":[-73.9912208,40.7413559]}},{"Latitude":-71.056101,"Longitude":42.375219,"Name":"Eons","Offices":{"type":"Point","coordinates":[-71.056101,42.375219]}},{"Latitude":139.7492374,"Longitude":35.6158956,"Name":"LinkShare","Offices":{"type":"Point","coordinates":[139.7492374,35.6158956]}},{"Latitude":139.7492374,"Longitude":35.6158956,"Name":"LinkShare","Offices":{"type":"Point","coordinates":[139.7492374,35.6158956]}},{"Latitude":139.7492374,"Longitude":35.6158956,"Name":"LinkShare","Offices":{"type":"Point","coordinates":[139.7492374,35.6158956]}},{"Latitude":-95.712891,"Longitude":37.09024,"Name":"Kaboose","Offices":{"type":"Point","coordinates":[-95.712891,37.09024]}},{"Latitude":24.827224,"Longitude":60.170514,"Name":"Nokia","Offices":{"type":"Point","coordinates":[24.827224,60.170514]}},{"Latitude":-95.712891,"Longitude":37.09024,"Name":"ValueClick","Offices":{"type":"Point","coordinates":[-95.712891,37.09024]}},{"Latitude":-95.712891,"Longitude":37.09024,"Name":"ValueClick","Offices":{"type":"Point","coordinates":[-95.712891,37.09024]}},{"Latitude":-95.712891,"Longitude":37.09024,"Name":"Fastclick","Offices":{"type":"Point","coordinates":[-95.712891,37.09024]}},{"Latitude":-71.118487,"Longitude":42.375392,"Name":"UpDown","Offices":{"type":"Point","coordinates":[-71.118487,42.375392]}},{"Latitude":-122.166264,"Longitude":37.451124,"Name":"Cuil","Offices":{"type":"Point","coordinates":[-122.166264,37.451124]}},{"Latitude":-0.136174,"Longitude":51.519819,"Name":"Webjam","Offices":{"type":"Point","coordinates":[-0.136174,51.519819]}},{"Latitude":-75.457492,"Longitude":40.063476,"Name":"Boomi","Offices":{"type":"Point","coordinates":[-75.457492,40.063476]}},{"Latitude":-75.457492,"Longitude":40.063476,"Name":"Boomi","Offices":{"type":"Point","coordinates":[-75.457492,40.063476]}},{"Latitude":-122.343679,"Longitude":37.580304,"Name":"mig33","Offices":{"type":"Point","coordinates":[-122.343679,37.580304]}},{"Latitude":-74.000195,"Longitude":40.72948,"Name":"Animoto","Offices":{"type":"Point","coordinates":[-74.000195,40.72948]}},{"Latitude":-74.000195,"Longitude":40.72948,"Name":"Animoto","Offices":{"type":"Point","coordinates":[-74.000195,40.72948]}},{"Latitude":-115.089514,"Longitude":36.076705,"Name":"Swamble","Offices":{"type":"Point","coordinates":[-115.089514,36.076705]}},{"Latitude":-71.118487,"Longitude":42.375392,"Name":"GamerDNA","Offices":{"type":"Point","coordinates":[-71.118487,42.375392]}},{"Latitude":-122.285714,"Longitude":37.557637,"Name":"SpeedDate","Offices":{"type":"Point","coordinates":[-122.285714,37.557637]}},{"Latitude":-122.306571,"Longitude":37.799549,"Name":"Data360","Offices":{"type":"Point","coordinates":[-122.306571,37.799549]}},{"Latitude":-121.983814,"Longitude":37.222604,"Name":"Houseglue","Offices":{"type":"Point","coordinates":[-121.983814,37.222604]}},{"Latitude":-118.441219,"Longitude":33.945553,"Name":"Pakt","Offices":{"type":"Point","coordinates":[-118.441219,33.945553]}},{"Latitude":-122.26999,"Longitude":37.887864,"Name":"Realius","Offices":{"type":"Point","coordinates":[-122.26999,37.887864]}},{"Latitude":-117.077311,"Longitude":33.020832,"Name":"Metaplace","Offices":{"type":"Point","coordinates":[-117.077311,33.020832]}},{"Latitude":-122.402866,"Longitude":37.768708,"Name":"Jawbone","Offices":{"type":"Point","coordinates":[-122.402866,37.768708]}},{"Latitude":-95.712891,"Longitude":37.09024,"Name":"MetaLink","Offices":{"type":"Point","coordinates":[-95.712891,37.09024]}},{"Latitude":-121.803572,"Longitude":37.661237,"Name":"BroadClip","Offices":{"type":"Point","coordinates":[-121.803572,37.661237]}},{"Latitude":-122.302262,"Longitude":37.559287,"Name":"Spoke","Offices":{"type":"Point","coordinates":[-122.302262,37.559287]}},{"Latitude":-118.42749,"Longitude":34.064491,"Name":"mEgo","Offices":{"type":"Point","coordinates":[-118.42749,34.064491]}},{"Latitude":-122.404052,"Longitude":37.789634,"Name":"Xobni","Offices":{"type":"Point","coordinates":[-122.404052,37.789634]}},{"Latitude":-122.012475,"Longitude":37.384239,"Name":"Tripwiser","Offices":{"type":"Point","coordinates":[-122.012475,37.384239]}},{"Latitude":14.489674,"Longitude":50.055049,"Name":"Wirenode","Offices":{"type":"Point","coordinates":[14.489674,50.055049]}},{"Latitude":-96.9403,"Longitude":32.860831,"Name":"Syntraxis","Offices":{"type":"Point","coordinates":[-96.9403,32.860831]}},{"Latitude":-118.445271,"Longitude":33.977854,"Name":"BuzzDash","Offices":{"type":"Point","coordinates":[-118.445271,33.977854]}},{"Latitude":-117.244034,"Longitude":33.09568,"Name":"BrightQube","Offices":{"type":"Point","coordinates":[-117.244034,33.09568]}},{"Latitude":-75.194657,"Longitude":39.956259,"Name":"Styky","Offices":{"type":"Point","coordinates":[-75.194657,39.956259]}},{"Latitude":-119.81439,"Longitude":39.530368,"Name":"Diigo","Offices":{"type":"Point","coordinates":[-119.81439,39.530368]}},{"Latitude":-122.036849,"Longitude":37.369195,"Name":"EkkoTV","Offices":{"type":"Point","coordinates":[-122.036849,37.369195]}},{"Latitude":-122.08744,"Longitude":37.418491,"Name":"Mozilla","Offices":{"type":"Point","coordinates":[-122.08744,37.418491]}},{"Latitude":-73.993127,"Longitude":40.740337,"Name":"Empressr","Offices":{"type":"Point","coordinates":[-73.993127,40.740337]}},{"Latitude":-76.581864,"Longitude":39.281734,"Name":"Notemarks","Offices":{"type":"Point","coordinates":[-76.581864,39.281734]}},{"Latitude":-0.149522,"Longitude":51.54236,"Name":"Jiglu","Offices":{"type":"Point","coordinates":[-0.149522,51.54236]}},{"Latitude":-122.393041,"Longitude":37.779558,"Name":"GroupSwim","Offices":{"type":"Point","coordinates":[-122.393041,37.779558]}},{"Latitude":175.2604,"Longitude":-37.797384,"Name":"Type-Any-Circle-Of-Six","Offices":{"type":"Point","coordinates":[175.2604,-37.797384]}},{"Latitude":-71.078978,"Longitude":42.364367,"Name":"Sermo","Offices":{"type":"Point","coordinates":[-71.078978,42.364367]}},{"Latitude":34.7595,"Longitude":32.0554,"Name":"SuTree","Offices":{"type":"Point","coordinates":[34.7595,32.0554]}},{"Latitude":-122.2966496,"Longitude":37.8136086,"Name":"Ponoko","Offices":{"type":"Point","coordinates":[-122.2966496,37.8136086]}},{"Latitude":-122.2966496,"Longitude":37.8136086,"Name":"Ponoko","Offices":{"type":"Point","coordinates":[-122.2966496,37.8136086]}},{"Latitude":-73.976348,"Longitude":40.756799,"Name":"Worklight","Offices":{"type":"Point","coordinates":[-73.976348,40.756799]}},{"Latitude":-118.474261,"Longitude":34.210785,"Name":"Dopetracks","Offices":{"type":"Point","coordinates":[-118.474261,34.210785]}},{"Latitude":-122.104099,"Longitude":37.401355,"Name":"SueEasy","Offices":{"type":"Point","coordinates":[-122.104099,37.401355]}},{"Latitude":-122.285588,"Longitude":37.560155,"Name":"RingCentral","Offices":{"type":"Point","coordinates":[-122.285588,37.560155]}},{"Latitude":-80.632606,"Longitude":28.074742,"Name":"itsmylife","Offices":{"type":"Point","coordinates":[-80.632606,28.074742]}},{"Latitude":-122.542491,"Longitude":37.904468,"Name":"Stixy","Offices":{"type":"Point","coordinates":[-122.542491,37.904468]}},{"Latitude":-122.347533,"Longitude":47.620716,"Name":"Moz","Offices":{"type":"Point","coordinates":[-122.347533,47.620716]}},{"Latitude":-71.220187,"Longitude":42.304545,"Name":"MatchMine","Offices":{"type":"Point","coordinates":[-71.220187,42.304545]}},{"Latitude":-73.982807,"Longitude":40.745216,"Name":"Mimeo","Offices":{"type":"Point","coordinates":[-73.982807,40.745216]}},{"Latitude":-122.3293984,"Longitude":47.6011125,"Name":"Zillow","Offices":{"type":"Point","coordinates":[-122.3293984,47.6011125]}},{"Latitude":-122.403486,"Longitude":37.792262,"Name":"Vestopia","Offices":{"type":"Point","coordinates":[-122.403486,37.792262]}},{"Latitude":-73.560084,"Longitude":45.500277,"Name":"Mobivox","Offices":{"type":"Point","coordinates":[-73.560084,45.500277]}},{"Latitude":-122.4044034,"Longitude":37.765125,"Name":"3Jam","Offices":{"type":"Point","coordinates":[-122.4044034,37.765125]}},{"Latitude":-121.961396,"Longitude":37.396312,"Name":"PlaySpan","Offices":{"type":"Point","coordinates":[-121.961396,37.396312]}},{"Latitude":-121.961396,"Longitude":37.396312,"Name":"PlaySpan","Offices":{"type":"Point","coordinates":[-121.961396,37.396312]}},{"Latitude":174.776217,"Longitude":-41.28648,"Name":"PlanHQ","Offices":{"type":"Point","coordinates":[174.776217,-41.28648]}},{"Latitude":-122.211281,"Longitude":37.502742,"Name":"Grouply","Offices":{"type":"Point","coordinates":[-122.211281,37.502742]}},{"Latitude":-95.712891,"Longitude":37.09024,"Name":"EchoStar","Offices":{"type":"Point","coordinates":[-95.712891,37.09024]}},{"Latitude":-122.335668,"Longitude":47.603015,"Name":"DocuSign","Offices":{"type":"Point","coordinates":[-122.335668,47.603015]}},{"Latitude":-71.540875,"Longitude":42.196083,"Name":"EMC","Offices":{"type":"Point","coordinates":[-71.540875,42.196083]}},{"Latitude":-122.285714,"Longitude":37.557637,"Name":"Zimbra","Offices":{"type":"Point","coordinates":[-122.285714,37.557637]}},{"Latitude":-122.419204,"Longitude":37.775196,"Name":"Wikinvest","Offices":{"type":"Point","coordinates":[-122.419204,37.775196]}},{"Latitude":-122.072612,"Longitude":37.39248,"Name":"FriendFeed","Offices":{"type":"Point","coordinates":[-122.072612,37.39248]}},{"Latitude":-3.435973,"Longitude":55.378051,"Name":"FlexiScale","Offices":{"type":"Point","coordinates":[-3.435973,55.378051]}},{"Latitude":-122.298168,"Longitude":37.862209,"Name":"earthmine","Offices":{"type":"Point","coordinates":[-122.298168,37.862209]}},{"Latitude":-95.712891,"Longitude":37.09024,"Name":"Babylon","Offices":{"type":"Point","coordinates":[-95.712891,37.09024]}},{"Latitude":-71.140762,"Longitude":42.354022,"Name":"Gazelle","Offices":{"type":"Point","coordinates":[-71.140762,42.354022]}},{"Latitude":-73.938638,"Longitude":41.705555,"Name":"Mixaloo","Offices":{"type":"Point","coordinates":[-73.938638,41.705555]}},{"Latitude":-3.632687,"Longitude":40.530724,"Name":"Fon","Offices":{"type":"Point","coordinates":[-3.632687,40.530724]}},{"Latitude":-118.468458,"Longitude":34.011335,"Name":"JibJab","Offices":{"type":"Point","coordinates":[-118.468458,34.011335]}},{"Latitude":-122.77941,"Longitude":45.3085,"Name":"LocoGopher","Offices":{"type":"Point","coordinates":[-122.77941,45.3085]}},{"Latitude":-95.712891,"Longitude":37.09024,"Name":"Zipidee","Offices":{"type":"Point","coordinates":[-95.712891,37.09024]}},{"Latitude":-117.20717,"Longitude":32.856744,"Name":"RecipeMatcher","Offices":{"type":"Point","coordinates":[-117.20717,32.856744]}},{"Latitude":-122.495222,"Longitude":37.856331,"Name":"Whiskey Media","Offices":{"type":"Point","coordinates":[-122.495222,37.856331]}},{"Latitude":-82.193515,"Longitude":28.208654,"Name":"Zolve","Offices":{"type":"Point","coordinates":[-82.193515,28.208654]}},{"Latitude":-95.712891,"Longitude":37.09024,"Name":"MSNBC","Offices":{"type":"Point","coordinates":[-95.712891,37.09024]}},{"Latitude":-71.049346,"Longitude":42.349164,"Name":"CondoDomain","Offices":{"type":"Point","coordinates":[-71.049346,42.349164]}},{"Latitude":-71.049346,"Longitude":42.349164,"Name":"CondoDomain","Offices":{"type":"Point","coordinates":[-71.049346,42.349164]}},{"Latitude":-73.978332,"Longitude":40.781159,"Name":"RayV","Offices":{"type":"Point","coordinates":[-73.978332,40.781159]}},{"Latitude":-122.161674,"Longitude":37.443058,"Name":"Uptake","Offices":{"type":"Point","coordinates":[-122.161674,37.443058]}},{"Latitude":-122.083487,"Longitude":37.386175,"Name":"Polyvore","Offices":{"type":"Point","coordinates":[-122.083487,37.386175]}},{"Latitude":-95.712891,"Longitude":37.09024,"Name":"FanIQ","Offices":{"type":"Point","coordinates":[-95.712891,37.09024]}},{"Latitude":4.5188631,"Longitude":51.9562996,"Name":"Woophy","Offices":{"type":"Point","coordinates":[4.5188631,51.9562996]}},{"Latitude":-95.712891,"Longitude":37.09024,"Name":"23andMe","Offices":{"type":"Point","coordinates":[-95.712891,37.09024]}},{"Latitude":-122.221717,"Longitude":37.476479,"Name":"YuMe","Offices":{"type":"Point","coordinates":[-122.221717,37.476479]}},{"Latitude":-122.29522,"Longitude":37.408826,"Name":"Confabb","Offices":{"type":"Point","coordinates":[-122.29522,37.408826]}},{"Latitude":-122.347533,"Longitude":47.620716,"Name":"Treemo Labs","Offices":{"type":"Point","coordinates":[-122.347533,47.620716]}},{"Latitude":-77.2279465,"Longitude":38.9132821,"Name":"Eloqua","Offices":{"type":"Point","coordinates":[-77.2279465,38.9132821]}},{"Latitude":-79.4021146,"Longitude":43.6467716,"Name":"Eloqua","Offices":{"type":"Point","coordinates":[-79.4021146,43.6467716]}},{"Latitude":-95.712891,"Longitude":37.09024,"Name":"Genentech","Offices":{"type":"Point","coordinates":[-95.712891,37.09024]}},{"Latitude":-122.346299,"Longitude":47.649027,"Name":"AdReady","Offices":{"type":"Point","coordinates":[-122.346299,47.649027]}},{"Latitude":-122.191988,"Longitude":47.617411,"Name":"MyFamily","Offices":{"type":"Point","coordinates":[-122.191988,47.617411]}},{"Latitude":-122.40414,"Longitude":37.792968,"Name":"Blurb","Offices":{"type":"Point","coordinates":[-122.40414,37.792968]}},{"Latitude":-73.983626,"Longitude":40.743808,"Name":"Tumblr","Offices":{"type":"Point","coordinates":[-73.983626,40.743808]}},{"Latitude":-122.394354,"Longitude":37.782809,"Name":"The Climate Corporation","Offices":{"type":"Point","coordinates":[-122.394354,37.782809]}},{"Latitude":-122.3331466,"Longitude":47.5984767,"Name":"The Climate Corporation","Offices":{"type":"Point","coordinates":[-122.3331466,47.5984767]}},{"Latitude":-122.341769,"Longitude":47.610571,"Name":"Picnik","Offices":{"type":"Point","coordinates":[-122.341769,47.610571]}},{"Latitude":-122.300246,"Longitude":37.553743,"Name":"Veodia","Offices":{"type":"Point","coordinates":[-122.300246,37.553743]}},{"Latitude":-71.52679,"Longitude":42.288291,"Name":"uTest","Offices":{"type":"Point","coordinates":[-71.52679,42.288291]}},{"Latitude":-71.52679,"Longitude":42.288291,"Name":"uTest","Offices":{"type":"Point","coordinates":[-71.52679,42.288291]}},{"Latitude":-122.421344,"Longitude":37.744274,"Name":"Automattic","Offices":{"type":"Point","coordinates":[-122.421344,37.744274]}},{"Latitude":-0.10759,"Longitude":51.520779,"Name":"blinkbox","Offices":{"type":"Point","coordinates":[-0.10759,51.520779]}},{"Latitude":-73.960717,"Longitude":40.621591,"Name":"Payoneer","Offices":{"type":"Point","coordinates":[-73.960717,40.621591]}},{"Latitude":-77.091025,"Longitude":38.963492,"Name":"JackBe","Offices":{"type":"Point","coordinates":[-77.091025,38.963492]}},{"Latitude":-77.091025,"Longitude":38.963492,"Name":"JackBe","Offices":{"type":"Point","coordinates":[-77.091025,38.963492]}},{"Latitude":-122.160671,"Longitude":37.445326,"Name":"EchoSign","Offices":{"type":"Point","coordinates":[-122.160671,37.445326]}},{"Latitude":-0.0558343,"Longitude":51.54202,"Name":"Songkick","Offices":{"type":"Point","coordinates":[-0.0558343,51.54202]}},{"Latitude":-122.268403,"Longitude":37.872222,"Name":"TasteBook","Offices":{"type":"Point","coordinates":[-122.268403,37.872222]}},{"Latitude":-73.9800645,"Longitude":40.6632194,"Name":"Simpy","Offices":{"type":"Point","coordinates":[-73.9800645,40.6632194]}},{"Latitude":-104.988123,"Longitude":39.755092,"Name":"Buzzwire","Offices":{"type":"Point","coordinates":[-104.988123,39.755092]}},{"Latitude":-95.712891,"Longitude":37.09024,"Name":"Shopatron","Offices":{"type":"Point","coordinates":[-95.712891,37.09024]}},{"Latitude":-122.430127,"Longitude":37.772542,"Name":"Crusher","Offices":{"type":"Point","coordinates":[-122.430127,37.772542]}},{"Latitude":-123.115208,"Longitude":49.25403,"Name":"Ubertor","Offices":{"type":"Point","coordinates":[-123.115208,49.25403]}},{"Latitude":-75.298032,"Longitude":40.09665,"Name":"XLNTads","Offices":{"type":"Point","coordinates":[-75.298032,40.09665]}},{"Latitude":-93.407837,"Longitude":44.871371,"Name":"JobDig","Offices":{"type":"Point","coordinates":[-93.407837,44.871371]}},{"Latitude":-122.394265,"Longitude":37.789498,"Name":"Marakana","Offices":{"type":"Point","coordinates":[-122.394265,37.789498]}},{"Latitude":-122.0341004,"Longitude":37.2572451,"Name":"Rollbase","Offices":{"type":"Point","coordinates":[-122.0341004,37.2572451]}},{"Latitude":-122.398125,"Longitude":37.7911209,"Name":"tyntec","Offices":{"type":"Point","coordinates":[-122.398125,37.7911209]}},{"Latitude":-122.229161,"Longitude":37.486571,"Name":"Predictify","Offices":{"type":"Point","coordinates":[-122.229161,37.486571]}},{"Latitude":-95.712891,"Longitude":37.09024,"Name":"CollegeHumor","Offices":{"type":"Point","coordinates":[-95.712891,37.09024]}},{"Latitude":-122.08276,"Longitude":37.388095,"Name":"TrialPay","Offices":{"type":"Point","coordinates":[-122.08276,37.388095]}},{"Latitude":-121.932962,"Longitude":37.285133,"Name":"Firetide","Offices":{"type":"Point","coordinates":[-121.932962,37.285133]}},{"Latitude":24.9279199,"Longitude":60.1760995,"Name":"Floobs","Offices":{"type":"Point","coordinates":[24.9279199,60.1760995]}},{"Latitude":138.6959288,"Longitude":-34.788039,"Name":"Moko Social Media","Offices":{"type":"Point","coordinates":[138.6959288,-34.788039]}},{"Latitude":-122.40188,"Longitude":37.790992,"Name":"Eurekster","Offices":{"type":"Point","coordinates":[-122.40188,37.790992]}},{"Latitude":-73.990753,"Longitude":40.741266,"Name":"eXelate","Offices":{"type":"Point","coordinates":[-73.990753,40.741266]}},{"Latitude":-122.3990501,"Longitude":37.787249,"Name":"eXelate","Offices":{"type":"Point","coordinates":[-122.3990501,37.787249]}},{"Latitude":-87.6517774,"Longitude":41.8831959,"Name":"eXelate","Offices":{"type":"Point","coordinates":[-87.6517774,41.8831959]}},{"Latitude":34.9341664,"Longitude":32.1618634,"Name":"eXelate","Offices":{"type":"Point","coordinates":[34.9341664,32.1618634]}},{"Latitude":2.3226888,"Longitude":48.8743443,"Name":"eXelate","Offices":{"type":"Point","coordinates":[2.3226888,48.8743443]}},{"Latitude":-0.1326786,"Longitude":51.5150129,"Name":"eXelate","Offices":{"type":"Point","coordinates":[-0.1326786,51.5150129]}},{"Latitude":-95.712891,"Longitude":37.09024,"Name":"OnLive","Offices":{"type":"Point","coordinates":[-95.712891,37.09024]}},{"Latitude":2.3608064,"Longitude":48.8599791,"Name":"blueKiwi","Offices":{"type":"Point","coordinates":[2.3608064,48.8599791]}},{"Latitude":2.3608064,"Longitude":48.8599791,"Name":"blueKiwi","Offices":{"type":"Point","coordinates":[2.3608064,48.8599791]}},{"Latitude":-122.347654,"Longitude":37.590056,"Name":"BitGravity","Offices":{"type":"Point","coordinates":[-122.347654,37.590056]}},{"Latitude":0.239866,"Longitude":51.604922,"Name":"Skinkers","Offices":{"type":"Point","coordinates":[0.239866,51.604922]}},{"Latitude":-122.398398,"Longitude":37.791733,"Name":"Gydget","Offices":{"type":"Point","coordinates":[-122.398398,37.791733]}},{"Latitude":-83.734673,"Longitude":42.292649,"Name":"Zattoo","Offices":{"type":"Point","coordinates":[-83.734673,42.292649]}},{"Latitude":-83.734673,"Longitude":42.292649,"Name":"Zattoo","Offices":{"type":"Point","coordinates":[-83.734673,42.292649]}},{"Latitude":-122.158804,"Longitude":37.43938,"Name":"Gigya","Offices":{"type":"Point","coordinates":[-122.158804,37.43938]}},{"Latitude":-122.006539,"Longitude":37.332271,"Name":"Baynote","Offices":{"type":"Point","coordinates":[-122.006539,37.332271]}},{"Latitude":-122.39783,"Longitude":37.787126,"Name":"Songbird","Offices":{"type":"Point","coordinates":[-122.39783,37.787126]}},{"Latitude":-122.336132,"Longitude":47.602873,"Name":"GridNetworks","Offices":{"type":"Point","coordinates":[-122.336132,47.602873]}},{"Latitude":-73.985506,"Longitude":40.757929,"Name":"Jango","Offices":{"type":"Point","coordinates":[-73.985506,40.757929]}},{"Latitude":-122.397672,"Longitude":37.786906,"Name":"Disqus","Offices":{"type":"Point","coordinates":[-122.397672,37.786906]}},{"Latitude":-73.639076,"Longitude":45.545447,"Name":"Defensio","Offices":{"type":"Point","coordinates":[-73.639076,45.545447]}},{"Latitude":-122.085807,"Longitude":37.351894,"Name":"SezWho","Offices":{"type":"Point","coordinates":[-122.085807,37.351894]}},{"Latitude":-77.023821,"Longitude":39.016745,"Name":"Qloud","Offices":{"type":"Point","coordinates":[-77.023821,39.016745]}},{"Latitude":-73.84179,"Longitude":40.907974,"Name":"Quigo","Offices":{"type":"Point","coordinates":[-73.84179,40.907974]}},{"Latitude":-118.38428,"Longitude":34.090932,"Name":"Evite","Offices":{"type":"Point","coordinates":[-118.38428,34.090932]}},{"Latitude":-73.980246,"Longitude":40.755446,"Name":"Peer39","Offices":{"type":"Point","coordinates":[-73.980246,40.755446]}},{"Latitude":-73.980246,"Longitude":40.755446,"Name":"Peer39","Offices":{"type":"Point","coordinates":[-73.980246,40.755446]}},{"Latitude":-84.392198,"Longitude":33.756806,"Name":"Vitrue","Offices":{"type":"Point","coordinates":[-84.392198,33.756806]}},{"Latitude":-74.001169,"Longitude":40.718888,"Name":"Vitrue","Offices":{"type":"Point","coordinates":[-74.001169,40.718888]}},{"Latitude":-74.001169,"Longitude":40.718888,"Name":"Vitrue","Offices":{"type":"Point","coordinates":[-74.001169,40.718888]}},{"Latitude":-74.001169,"Longitude":40.718888,"Name":"Vitrue","Offices":{"type":"Point","coordinates":[-74.001169,40.718888]}},{"Latitude":-74.001169,"Longitude":40.718888,"Name":"Vitrue","Offices":{"type":"Point","coordinates":[-74.001169,40.718888]}},{"Latitude":-74.001169,"Longitude":40.718888,"Name":"Vitrue","Offices":{"type":"Point","coordinates":[-74.001169,40.718888]}},{"Latitude":-122.335373,"Longitude":47.607065,"Name":"Pelago","Offices":{"type":"Point","coordinates":[-122.335373,47.607065]}},{"Latitude":-121.956295,"Longitude":37.279132,"Name":"DraftMix","Offices":{"type":"Point","coordinates":[-121.956295,37.279132]}},{"Latitude":-94.370901,"Longitude":38.977092,"Name":"FilmCrave","Offices":{"type":"Point","coordinates":[-94.370901,38.977092]}},{"Latitude":-121.968474,"Longitude":37.352309,"Name":"Upcoming","Offices":{"type":"Point","coordinates":[-121.968474,37.352309]}},{"Latitude":13.398694,"Longitude":52.523402,"Name":"Plazes","Offices":{"type":"Point","coordinates":[13.398694,52.523402]}},{"Latitude":4.367612,"Longitude":50.837051,"Name":"Zilok","Offices":{"type":"Point","coordinates":[4.367612,50.837051]}},{"Latitude":-122.334983,"Longitude":47.603327,"Name":"Faves","Offices":{"type":"Point","coordinates":[-122.334983,47.603327]}},{"Latitude":-71.288568,"Longitude":42.402378,"Name":"StylePath","Offices":{"type":"Point","coordinates":[-71.288568,42.402378]}},{"Latitude":-95.712891,"Longitude":37.09024,"Name":"Excite@Home","Offices":{"type":"Point","coordinates":[-95.712891,37.09024]}},{"Latitude":-79.364013,"Longitude":43.65455,"Name":"mDialog","Offices":{"type":"Point","coordinates":[-79.364013,43.65455]}},{"Latitude":-79.364013,"Longitude":43.65455,"Name":"mDialog","Offices":{"type":"Point","coordinates":[-79.364013,43.65455]}},{"Latitude":-77.4582,"Longitude":38.84919,"Name":"BrainKeeper","Offices":{"type":"Point","coordinates":[-77.4582,38.84919]}},{"Latitude":-73.9717364,"Longitude":40.7550005,"Name":"Vringo","Offices":{"type":"Point","coordinates":[-73.9717364,40.7550005]}},{"Latitude":0.130647,"Longitude":52.195668,"Name":"Evi","Offices":{"type":"Point","coordinates":[0.130647,52.195668]}},{"Latitude":-118.468672,"Longitude":34.064139,"Name":"GotCast","Offices":{"type":"Point","coordinates":[-118.468672,34.064139]}},{"Latitude":34.7595,"Longitude":32.0554,"Name":"Yedda","Offices":{"type":"Point","coordinates":[34.7595,32.0554]}},{"Latitude":-79.37621,"Longitude":43.650168,"Name":"Casero","Offices":{"type":"Point","coordinates":[-79.37621,43.650168]}},{"Latitude":-122.401144,"Longitude":37.794643,"Name":"BrightRoll","Offices":{"type":"Point","coordinates":[-122.401144,37.794643]}},{"Latitude":-122.401144,"Longitude":37.794643,"Name":"BrightRoll","Offices":{"type":"Point","coordinates":[-122.401144,37.794643]}},{"Latitude":-122.401144,"Longitude":37.794643,"Name":"BrightRoll","Offices":{"type":"Point","coordinates":[-122.401144,37.794643]}},{"Latitude":-122.401144,"Longitude":37.794643,"Name":"BrightRoll","Offices":{"type":"Point","coordinates":[-122.401144,37.794643]}},{"Latitude":-122.012475,"Longitude":37.384239,"Name":"Minekey","Offices":{"type":"Point","coordinates":[-122.012475,37.384239]}},