[{"Latitude":-73.9800645,"Longitude":40.74727,"Name":"Gilt Groupe","Offices":{"type":"Point","coordinates":[-73.9800645,40.74727]}},{"Latitude":-122.4005983,"Longitude":37.7955307,"Name":"99designs","Offices":{"type":"Point","coordinates":[-122.4005983,37.7955307]}},{"Latitude":144.9868546,"Longitude":-37.8026587,"Name":"99designs","Offices":{"type":"Point","coordinates":[144.9868546,-37.8026587]}},{"Latitude":13.4469031,"Longitude":52.4986199,"Name":"99designs","Offices":{"type":"Point","coordinates":[13.4469031,52.4986199]}},{"Latitude":-74.000827,"Longitude":40.730763,"Name":"Stylesight","Offices":{"type":"Point","coordinates":[-74.000827,40.730763]}},{"Latitude":-73.9508211,"Longitude":40.7277189,"Name":"Refinery29","Offices":{"type":"Point","coordinates":[-73.9508211,40.7277189]}},{"Latitude":-74.0758333,"Longitude":4.5980556,"Name":"Geelbe","Offices":{"type":"Point","coordinates":[-74.0758333,4.5980556]}},{"Latitude":-122.6931439,"Longitude":45.7968414,"Name":"Graticle","Offices":{"type":"Point","coordinates":[-122.6931439,45.7968414]}},{"Latitude":-2.9308322,"Longitude":43.264499,"Name":"Chicisimo","Offices":{"type":"Point","coordinates":[-2.9308322,43.264499]}}]