[{"Name":"New Jersey School Boards Association","Latitude":40.2254245,"Longitude":-74.7786536},{"Name":"Winston Preparatory School","Latitude":40.8247041,"Longitude":-74.4295228},{"Name":"Collegiate School","Latitude":40.8531353,"Longitude":-74.1330878},{"Name":"New Jersey Association of Independent Schools (NJAIS)","Latitude":40.798687,"Longitude":-74.485854},{"Name":"The Deron School of New Jersey","Latitude":40.7036647,"Longitude":-74.2782632},{"Name":"McNair Academic High School","Latitude":40.7268028,"Longitude":-74.0475072},{"Name":"New Jersey Japanese School","Latitude":41.0295306,"Longitude":-74.2269909},{"Name":"New Milford High School","Latitude":40.9420428,"Longitude":-74.0215282},{"Name":"Bergen County Academies","Latitude":40.9025128,"Longitude":-74.0339469},{"Name":"The Lawrenceville School","Latitude":40.294186,"Longitude":-74.7249281},{"Name":"Dwight-Englewood School","Latitude":40.8881541,"Longitude":-73.9617283},{"Name":"The Pingry School","Latitude":40.6200906,"Longitude":-74.5676923},{"Name":"ECLC of New Jersey Chatham School","Latitude":40.7387039,"Longitude":-74.3858386},{"Name":"The Hun School of Princeton","Latitude":40.3372103,"Longitude":-74.6861637},{"Name":"Princeton High School","Latitude":40.35841,"Longitude":-74.6560101},{"Name":"KIPP New Jersey","Latitude":40.7383439,"Longitude":-74.1689952},{"Name":"Kent Place School","Latitude":40.719934,"Longitude":-74.364647},{"Name":"Delbarton School","Latitude":40.7882833,"Longitude":-74.5312312},{"Name":"Peddie School","Latitude":40.2668445,"Longitude":-74.5242289},{"Name":"The Wardlaw + Hartridge School","Latitude":40.5948968,"Longitude":-74.3797829}]