,_id,category_code,deadpooled_year,founded_year,lat,lng,name,number_of_employees,oficina,tag_list,total_money_raised
0,5d245689f82093f85a6ef96e,games_video,,,34.025958,-118.379768,Flektor,,"{'type': 'Point', 'coordinates': [-118.379768, 34.025958]}","flektor, photo, video",
1,5d245689f82093f85a6ef976,games_video,,,37.451151,-122.154369,Lala,,"{'type': 'Point', 'coordinates': [-122.154369, 37.451151]}",,44200000.0
2,5d245689f82093f85a6ef97a,games_video,,2006.0,40.7464969,-74.0094471,Joost,0.0,"{'type': 'Point', 'coordinates': [-74.0094471, 40.7464969]}","iptv, babelgum, television, video, theveniceproject",45000000.0
3,5d245689f82093f85a6ef97b,games_video,2008.0,2007.0,37.09024,-95.712891,Sparter,,"{'type': 'Point', 'coordinates': [-95.712891, 37.09024]}","gaming, game, wow, worldofwarcraft, virtualgoods",
4,5d245689f82093f85a6ef982,games_video,,2004.0,32.902266,-117.20834,Veoh,,"{'type': 'Point', 'coordinates': [-117.20834, 32.902266]}","veoh, video, veohtv, socialvideo, videosharing, crunchbase, inuyasha",69800000.0
5,5d245689f82093f85a6ef984,games_video,,2006.0,37.788482,-122.409173,Kyte,40.0,"{'type': 'Point', 'coordinates': [-122.409173, 37.788482]}","video, mobile, iphone-app, video-platform, mobile-app, media, interactive",23400000.0
6,5d245689f82093f85a6ef98e,games_video,2013.0,2007.0,53.344104,-6.267494,Babelgum,,"{'type': 'Point', 'coordinates': [-6.267494, 53.344104]}","iptv, web2ireland",13200000.0
7,5d245689f82093f85a6ef999,games_video,,2006.0,31.046051,34.851612,blogTV,,"{'type': 'Point', 'coordinates': [34.851612, 31.046051]}","blogtv, broadcast, chat, live",3000000.0
8,5d245689f82093f85a6ef99a,games_video,2013.0,2006.0,34.051409,-118.254558,Stickam,35.0,"{'type': 'Point', 'coordinates': [-118.254558, 34.051409]}","video, livestream, webcam, live, livechat, chat, broadcast, stream",
9,5d245689f82093f85a6ef99b,games_video,,2004.0,40.722655,-73.99873,Pando Networks,23.0,"{'type': 'Point', 'coordinates': [-73.99873, 40.722655]}","p2p, video, streaming, download, cdn",11000000.0
10,5d245689f82093f85a6ef99c,games_video,,2007.0,40.801358,-74.3372,AdaptiveBlue,15.0,"{'type': 'Point', 'coordinates': [-74.3372, 40.801358]}","semantic-web, contextual-browsing, recommendations, entertainment, checkins",24000000.0
11,5d245689f82093f85a6ef99d,games_video,,2005.0,37.627971,-122.426804,YouTube,0.0,"{'type': 'Point', 'coordinates': [-122.426804, 37.627971]}","channels, movies, rentals, share, usergeneratedvideo, viralvideo, video, videos",11500000.0
12,5d245689f82093f85a6ef9a8,games_video,,2006.0,37.780716,-122.393913,CastTV,0.0,"{'type': 'Point', 'coordinates': [-122.393913, 37.780716]}","videosearch, techcrunch40",3100000.0
13,5d245689f82093f85a6ef9a9,games_video,,2005.0,37.757758,-122.388243,Revision3,,"{'type': 'Point', 'coordinates': [-122.388243, 37.757758]}","video, digg, msn",9000000.0
14,5d245689f82093f85a6ef9aa,games_video,2007.0,2000.0,55.755786,37.617633,AllofMP3,,"{'type': 'Point', 'coordinates': [37.617633, 55.755786]}",music,
15,5d245689f82093f85a6ef9ab,games_video,2010.0,2006.0,51.808933,6.553452,SellABand,,"{'type': 'Point', 'coordinates': [6.553452, 51.808933]}","musicmonetizatoin, music, bands",5000000.0
16,5d245689f82093f85a6ef9ac,games_video,,,37.553385,-122.302149,There,,"{'type': 'Point', 'coordinates': [-122.302149, 37.553385]}","virtualworld, there, teens",
17,5d245689f82093f85a6ef9b0,games_video,,2007.0,37.421621,-122.137444,Funny Or Die,,"{'type': 'Point', 'coordinates': [-122.137444, 37.421621]}","celebrity, video, comedy",18000000.0
18,5d245689f82093f85a6ef9b2,games_video,,2000.0,37.590339,-122.341715,MeeVee,,"{'type': 'Point', 'coordinates': [-122.341715, 37.590339]}","tvguide, video",25000000.0
19,5d245689f82093f85a6ef9bb,games_video,,2007.0,37.392936,-122.07948,Ustream,250.0,"{'type': 'Point', 'coordinates': [-122.07948, 37.392936]}","live, stream, streaming, video, videos, broadcast, broadcasting, mobile, app",60100000.0
20,5d245689f82093f85a6ef9bc,games_video,,2007.0,40.726155,-73.995625,Livestream,120.0,"{'type': 'Point', 'coordinates': [-73.995625, 40.726155]}","mogulus, ustream, justin-tv, live-broadcast, streaming, video, livecastr, livestream",14700000.0
21,5d245689f82093f85a6ef9c1,games_video,,2004.0,37.793819,-122.395089,blinkx,,"{'type': 'Point', 'coordinates': [-122.395089, 37.793819]}","videosearch, search, multimediasearch",
22,5d245689f82093f85a6ef9cf,games_video,,2005.0,37.484619,-122.206893,RockYou,106.0,"{'type': 'Point', 'coordinates': [-122.206893, 37.484619]}","widgets, photos, avatars, countdown, horoscope, voicemail, rockyou, facebook, highoktane",136000000.0
23,5d245689f82093f85a6efa3a,games_video,,2002.0,47.615313,-122.323408,iLike,28.0,"{'type': 'Point', 'coordinates': [-122.323408, 47.615313]}","socialmusic, ilike, musicrecommendation, music, social, artists, musicians",16500000.0
24,5d245689f82093f85a6efa4b,games_video,,2003.0,37.788668,-122.400558,hi5,100.0,"{'type': 'Point', 'coordinates': [-122.400558, 37.788668]}","hi5, socialnetworking, musicnetwork, youyu",52000000.0
25,5d245689f82093f85a6efa53,games_video,,1889.0,36.204824,138.252924,Nintendo,5080.0,"{'type': 'Point', 'coordinates': [138.252924, 36.204824]}","games, console",
26,5d245689f82093f85a6efa5d,games_video,,1992.0,37.536172,-122.327323,Jaman,,"{'type': 'Point', 'coordinates': [-122.327323, 37.536172]}","cinema, indie, jaman, movies, films, independent, world",
27,5d245689f82093f85a6efa63,games_video,,2006.0,37.787092,-122.399972,Curse,58.0,"{'type': 'Point', 'coordinates': [-122.399972, 37.787092]}","mmo, curse",12000000.0
28,5d245689f82093f85a6efa67,games_video,2009.0,2004.0,37.419819,-122.090188,PeerMe,,"{'type': 'Point', 'coordinates': [-122.090188, 37.419819]}","voip, mvoip, videoconferencing",5000000.0
29,5d245689f82093f85a6efa70,games_video,,2005.0,37.4858654,-122.2262606,Vuze,20.0,"{'type': 'Point', 'coordinates': [-122.2262606, 37.4858654]}",,34000000.0
30,5d245689f82093f85a6efa77,games_video,,2005.0,37.408256,-122.154176,PodTech,,"{'type': 'Point', 'coordinates': [-122.154176, 37.408256]}","videonetwork, onlinevideo, technologyvideo",7500000.0
31,5d245689f82093f85a6efa7e,games_video,,2005.0,47.61968,-122.356756,BuddyTV,20.0,"{'type': 'Point', 'coordinates': [-122.356756, 47.61968]}","tv, tvguide",10600000.0
32,5d245689f82093f85a6efa81,games_video,,2004.0,34.017506,-118.401579,Crackle,,"{'type': 'Point', 'coordinates': [-118.401579, 34.017506]}","online-video, movies, television, original, online, content, sony",1750000.0
33,5d245689f82093f85a6efa99,games_video,2012.0,2005.0,42.417268,-71.258466,PermissionTV,,"{'type': 'Point', 'coordinates': [-71.258466, 42.417268]}","tv, permissiontv, online-video-platform, interactivity, publishing, movies, ondemand, video",9000000.0
34,5d245689f82093f85a6efa9a,games_video,2009.0,2007.0,34.052187,-118.243425,WebbAlert,,"{'type': 'Point', 'coordinates': [-118.243425, 34.052187]}","webbalert, blog, video, vlog, technology, gaming, news, bebospy-com",
35,5d245689f82093f85a6efa9c,games_video,,1923.0,34.156802,-118.324987,The Walt Disney Company,25000.0,"{'type': 'Point', 'coordinates': [-118.324987, 34.156802]}","disney, media, entertainment, movies",
36,5d245689f82093f85a6efaa1,games_video,,2006.0,37.09024,-95.712891,WallStrip,,"{'type': 'Point', 'coordinates': [-95.712891, 37.09024]}","videoblog, financialnews",600000.0
37,5d245689f82093f85a6efaa9,games_video,2009.0,,29.427051,-98.487764,MyToons,,"{'type': 'Point', 'coordinates': [-98.487764, 29.427051]}","animation, video, mytoons, films, cartoons",
38,5d245689f82093f85a6efaaa,games_video,,2006.0,31.046051,34.851612,Aniboom,25.0,"{'type': 'Point', 'coordinates': [34.851612, 31.046051]}","animation-production, cartoon-production, cartoon, video, anime, cartoons, animations, online-collaboration",14500000.0
39,5d245689f82093f85a6efaac,games_video,,1995.0,42.7973978,-70.8873327,ActiveWorlds,,"{'type': 'Point', 'coordinates': [-70.8873327, 42.7973978]}","virtualworld, universe, activeworlds, world, 3d, onlinegaming",
40,5d245689f82093f85a6efabd,games_video,,2003.0,37.437328,-122.159928,Metacafe,,"{'type': 'Point', 'coordinates': [-122.159928, 37.437328]}","online-video, video-entertainment, online-entertainment, digital-entertainment, movies, video-games, sports, music, tv",50000000.0
41,5d245689f82093f85a6efac2,games_video,2011.0,2004.0,34.052187,-118.243425,Revver,,"{'type': 'Point', 'coordinates': [-118.243425, 34.052187]}","video, youtube, usergeneratedvideo, revenue, revenue-share, ugc, ugv, usergeneratedcontent",12700000.0
42,5d245689f82093f85a6efac3,games_video,,,31.169036,-100.076888,Strayform,,"{'type': 'Point', 'coordinates': [-100.076888, 31.169036]}","music, musicmonetization, indiemusic, creativecommons, licensing",
43,5d245689f82093f85a6efac8,games_video,2008.0,2007.0,31.046051,34.851612,KnockaTV,,"{'type': 'Point', 'coordinates': [34.851612, 31.046051]}","tv, video, usergeneratedcontent, ugc",4500000.0
44,5d245689f82093f85a6efad1,games_video,,,37.780134,-122.396744,IODA,,"{'type': 'Point', 'coordinates': [-122.396744, 37.780134]}","musicdistribution, musicaggregator, musicpromotion",
45,5d245689f82093f85a6efad6,games_video,2011.0,2007.0,37.781557,-122.407959,DanceJam,0.0,"{'type': 'Point', 'coordinates': [-122.407959, 37.781557]}","video, dance",4500000.0
46,5d245689f82093f85a6efad7,games_video,,2006.0,37.786942,-122.401245,Kongregate,20.0,"{'type': 'Point', 'coordinates': [-122.401245, 37.786942]}",,19000000.0
47,5d245689f82093f85a6efae0,games_video,2007.0,2007.0,40.445009,-79.948563,SlapVid,,"{'type': 'Point', 'coordinates': [-79.948563, 40.445009]}",slapvid,
48,5d245689f82093f85a6efae7,games_video,,2003.0,37.09024,-95.712891,GoFish,,"{'type': 'Point', 'coordinates': [-95.712891, 37.09024]}",,24000000.0
49,5d245689f82093f85a6efaf7,games_video,,,40.705898,-74.011398,JumpTV,,"{'type': 'Point', 'coordinates': [-74.011398, 40.705898]}","tvdistribution, contentdistribution, internationalcontent",
50,5d245689f82093f85a6efaff,games_video,2009.0,1999.0,47.579208,-122.155668,Zango,225.0,"{'type': 'Point', 'coordinates': [-122.155668, 47.579208]}","games, videos, downloads, free, adware",40000000.0
51,5d245689f82093f85a6efb08,games_video,,2004.0,37.782263,-122.392142,Mevio,,"{'type': 'Point', 'coordinates': [-122.392142, 37.782263]}","podcast, entertainmentnetwork",48900000.0
52,5d245689f82093f85a6efb16,games_video,,2007.0,34.017373,-118.453218,sezmi,,"{'type': 'Point', 'coordinates': [-118.453218, 34.017373]}","homeentertainment, tv, ondemandvideo",78600000.0
53,5d245689f82093f85a6efb17,games_video,,2007.0,26.207024,-80.157296,sezmi,,"{'type': 'Point', 'coordinates': [-80.157296, 26.207024]}","homeentertainment, tv, ondemandvideo",78600000.0
54,5d245689f82093f85a6efb18,games_video,,2007.0,37.524422,-122.265869,sezmi,,"{'type': 'Point', 'coordinates': [-122.265869, 37.524422]}","homeentertainment, tv, ondemandvideo",78600000.0
55,5d245689f82093f85a6efb1a,games_video,,,37.09024,-95.712891,Ruckus,,"{'type': 'Point', 'coordinates': [-95.712891, 37.09024]}",,52200000.0
56,5d245689f82093f85a6efb37,games_video,,2008.0,47.597965,-122.151158,YouBeQB,8.0,"{'type': 'Point', 'coordinates': [-122.151158, 47.597965]}","youbeqb, fantasyfootball, fantasyleague, sports",
57,5d245689f82093f85a6efb3b,games_video,,2005.0,42.350274,-71.058768,MocoSpace,25.0,"{'type': 'Point', 'coordinates': [-71.058768, 42.350274]}",mobile-social-networking,10500000.0
58,5d245689f82093f85a6efb43,games_video,,,42.656621,-71.140538,Vtap,,"{'type': 'Point', 'coordinates': [-71.140538, 42.656621]}","vtap, veveo, mobilesearch, videosearch, search",14000000.0
59,5d245689f82093f85a6efb46,games_video,2009.0,2004.0,37.09024,-95.712891,SpiralFrog,15.0,"{'type': 'Point', 'coordinates': [-95.712891, 37.09024]}","zucchero, music, free",45000000.0
60,5d245689f82093f85a6efb6c,games_video,,2007.0,43.799511,-79.348037,Contrastream,1.0,"{'type': 'Point', 'coordinates': [-79.348037, 43.799511]}","socialmusic, indiemusic",
61,5d245689f82093f85a6efb72,games_video,,2002.0,34.0184659,-118.49863,Xfire,,"{'type': 'Point', 'coordinates': [-118.49863, 34.0184659]}","games, pc, entertainment, onlinegaming, skillgaming, pcgaming, socialnetworking, instantmessaging",7000000.0
62,5d245689f82093f85a6efb73,games_video,2008.0,,37.316466,-121.873881,Videohybrid,2.0,"{'type': 'Point', 'coordinates': [-121.873881, 37.316466]}","videohybrid, video, piracy",
63,5d245689f82093f85a6efb79,games_video,,2006.0,40.723384,-74.001704,OMGPOP,50.0,"{'type': 'Point', 'coordinates': [-74.001704, 40.723384]}","dating, gaming, auction",16600000.000000002
64,5d245689f82093f85a6efb7d,games_video,,2008.0,37.781265,-122.393229,Crunchyroll,50.0,"{'type': 'Point', 'coordinates': [-122.393229, 37.781265]}","crunchyroll, anime, manga, video, gaming, music, kdrama, jdrama, subscription",4800000.0
65,5d245689f82093f85a6efb81,games_video,,2003.0,44.865243,-93.4094629,Yugma,38.0,"{'type': 'Point', 'coordinates': [-93.4094629, 44.865243]}","videochat, messaging, onlinecollaboration, chat",
66,5d245689f82093f85a6efb86,games_video,,2007.0,34.031276,-118.456806,hulu,153.0,"{'type': 'Point', 'coordinates': [-118.456806, 34.031276]}","hulu, video, embeddable, professional, content, black, lost, heroes, simpsons, office, tv, movies",100000000.0
67,5d245689f82093f85a6efb98,games_video,,2007.0,47.611012,-122.333523,MediaPops,0.0,"{'type': 'Point', 'coordinates': [-122.333523, 47.611012]}","mediapops, music, movies, books, discovery, concerts, gasmes, games, new",
68,5d245689f82093f85a6efba9,games_video,2012.0,,33.959799,-118.343938,RotoHog,,"{'type': 'Point', 'coordinates': [-118.343938, 33.959799]}",,8000000.0
69,5d245689f82093f85a6efbaa,games_video,,2006.0,47.6015315,-122.335943,FlowPlay,30.0,"{'type': 'Point', 'coordinates': [-122.335943, 47.6015315]}","flowplay, casual-games, virtual-world, avatars, mmo, casino, mmorpg, ourworld, vegas-world",3970000.0
70,5d245689f82093f85a6efbb7,games_video,,2007.0,43.67084,-83.913153,ChessPark,,"{'type': 'Point', 'coordinates': [-83.913153, 43.67084]}","onlinegames, chess, multiplayer",1000000.0
71,5d245689f82093f85a6efbce,games_video,,2005.0,37.580304,-122.343679,mig33,100.0,"{'type': 'Point', 'coordinates': [-122.343679, 37.580304]}","socialentertainment, platform, clients, android, blackberry, gree, mtk, j2me, web, online, mobile, communities, virtual-gifts, avatars, chat, chatroom, games",32400000.0
72,5d245689f82093f85a6efbd5,games_video,,2006.0,37.887864,-122.26999,Realius,3.0,"{'type': 'Point', 'coordinates': [-122.26999, 37.887864]}","realius, games, realstate",500000.0
73,5d245689f82093f85a6efbd7,games_video,,2006.0,33.020832,-117.077311,Metaplace,12.0,"{'type': 'Point', 'coordinates': [-117.077311, 33.020832]}","metaplace, games, social, facebook, mmo, areae, island-life, my-vineyard",9400000.0
74,5d245689f82093f85a6efbe9,games_video,,2006.0,37.369195,-122.036849,EkkoTV,0.0,"{'type': 'Point', 'coordinates': [-122.036849, 37.369195]}","ekkotv, ekkotvdiscussionplatform, livevideo, debate, discussion",
75,5d245689f82093f85a6efbee,games_video,,2006.0,32.0554,34.7595,SuTree,5.0,"{'type': 'Point', 'coordinates': [34.7595, 32.0554]}","sutree, video, instructionalvideos",
76,5d245689f82093f85a6efbf7,games_video,,2006.0,37.396312,-121.961396,PlaySpan,,"{'type': 'Point', 'coordinates': [-121.961396, 37.396312]}","mmog, commerce, gamecommerce",46300000.0
77,5d245689f82093f85a6efbfd,games_video,,,37.384919,-122.053175,Graspr,,"{'type': 'Point', 'coordinates': [-122.053175, 37.384919]}","socialnetworking, video, instructions, howto",2500000.0
78,5d245689f82093f85a6efc04,games_video,,,47.733603,-122.355579,Tioti,3.0,"{'type': 'Point', 'coordinates': [-122.355579, 47.733603]}","iptv, tvaggregator, aggregation, tvguide",
79,5d245689f82093f85a6efc05,games_video,,,37.783898,-122.395234,Rupture,25.0,"{'type': 'Point', 'coordinates': [-122.395234, 37.783898]}","wow, worldofwarcraft, socialnetwork, napster, snocap",3000000.0
80,5d245689f82093f85a6efc0e,games_video,2013.0,2007.0,41.705555,-73.938638,Mixaloo,4.0,"{'type': 'Point', 'coordinates': [-73.938638, 41.705555]}","music, mixtape, revenueshare",
81,5d245689f82093f85a6efc10,games_video,,,51.524323,-0.081169,Tioti,3.0,"{'type': 'Point', 'coordinates': [-0.081169, 51.524323]}","iptv, tvaggregator, aggregation, tvguide",
82,5d245689f82093f85a6efc1a,games_video,,2009.0,53.707739,10.023246,alluc,7.0,"{'type': 'Point', 'coordinates': [10.023246, 53.707739]}","video, piracy, videodatabase",
83,5d245689f82093f85a6efc1b,games_video,,2005.0,40.781159,-73.978332,RayV,,"{'type': 'Point', 'coordinates': [-73.978332, 40.781159]}","television, tv, p2p, virv",16000000.0
84,5d245689f82093f85a6efc39,games_video,,2006.0,37.553743,-122.300246,Veodia,15.0,"{'type': 'Point', 'coordinates': [-122.300246, 37.553743]}","video, streaming",8300000.000000001
85,5d245689f82093f85a6efc46,games_video,,2006.0,51.520779,-0.10759,blinkbox,,"{'type': 'Point', 'coordinates': [-0.10759, 51.520779]}","television, video",
86,5d245689f82093f85a6efc4c,games_video,,1999.0,37.09024,-95.712891,CollegeHumor,,"{'type': 'Point', 'coordinates': [-95.712891, 37.09024]}","humor, videos, college",20000000.0
87,5d245689f82093f85a6efc50,games_video,,,40.7453721,-74.0078293,Vimeo,,"{'type': 'Point', 'coordinates': [-74.0078293, 40.7453721]}","video, sharing",
88,5d245689f82093f85a6efc57,games_video,,2002.0,37.09024,-95.712891,OnLive,,"{'type': 'Point', 'coordinates': [-95.712891, 37.09024]}",,56500000.0
89,5d245689f82093f85a6efc5f,games_video,,,37.40047,-122.072981,PicksPal,,"{'type': 'Point', 'coordinates': [-122.072981, 37.40047]}","fantasysports, gaming, picks, sports",15000000.0
90,5d245689f82093f85a6efc64,games_video,,2005.0,42.292649,-83.734673,Zattoo,45.0,"{'type': 'Point', 'coordinates': [-83.734673, 42.292649]}","p2p, onlinevideo, p2pstreaming, online-tv",10000000.0
91,5d245689f82093f85a6efc67,games_video,,2007.0,40.757929,-73.985506,Jango,,"{'type': 'Point', 'coordinates': [-73.985506, 40.757929]}","personalizedradio, internetradio, radio, musicrecommendation",
92,5d245689f82093f85a6efc69,games_video,,2007.0,39.016745,-77.023821,Qloud,,"{'type': 'Point', 'coordinates': [-77.023821, 39.016745]}","socialmusic, mymusic, socialnetworkingapplications, musicplayers, personalizedradio",600000.0
93,5d245689f82093f85a6efc72,games_video,2008.0,,37.548482,-122.320534,Akimbo,,"{'type': 'Point', 'coordinates': [-122.320534, 37.548482]}",ondemandvideo,35700000.0
94,5d245689f82093f85a6efc77,games_video,,2007.0,38.977092,-94.370901,FilmCrave,3.0,"{'type': 'Point', 'coordinates': [-94.370901, 38.977092]}","movies, social-network, trailers, reviews, bootstrapped, lists, social-media, friends",
95,5d245689f82093f85a6efc78,games_video,,2007.0,37.279132,-121.956295,DraftMix,3.0,"{'type': 'Point', 'coordinates': [-121.956295, 37.279132]}","fantasy-sports, y-combinator, fantasy-football",
96,5d245689f82093f85a6efc7b,games_video,,2007.0,34.064139,-118.468672,GotCast,5.0,"{'type': 'Point', 'coordinates': [-118.468672, 34.064139]}",crowdsourcing,50000.0
97,5d245689f82093f85a6efc81,games_video,,,40.916003,-73.952052,Fleaflicker,,"{'type': 'Point', 'coordinates': [-73.952052, 40.916003]}",fantasysports,
98,5d245689f82093f85a6efc9a,games_video,,,34.152826,-118.465582,Fix8,,"{'type': 'Point', 'coordinates': [-118.465582, 34.152826]}","avatar, video-im, im, video",5000000.0
99,5d245689f82093f85a6efcbb,games_video,,1999.0,39.105555,-77.179772,ZeniMax,,"{'type': 'Point', 'coordinates': [-77.179772, 39.105555]}",,586000000.0
100,5d245689f82093f85a6efcc2,games_video,2009.0,,37.862592,-122.493561,Blowtorch,,"{'type': 'Point', 'coordinates': [-122.493561, 37.862592]}","entertainment, movies, filmstudio",50000000.0
101,5d245689f82093f85a6efcc3,games_video,,,37.866833,-122.267796,Dabble,,"{'type': 'Point', 'coordinates': [-122.267796, 37.866833]}",video,350000.0
102,5d245689f82093f85a6efcd1,games_video,,,42.352096,-71.064632,SnapYap,,"{'type': 'Point', 'coordinates': [-71.064632, 42.352096]}","videoconferencing, videocalls, videomessaging, webcam, video-conferencing, video-chat, tokbox, userplane, Seesmic",
103,5d245689f82093f85a6efcd8,games_video,,,40.099703,-75.39599,RedLasso,,"{'type': 'Point', 'coordinates': [-75.39599, 40.099703]}","radio, tv, clips, share",6510551.0
104,5d245689f82093f85a6efcf0,games_video,,2006.0,40.606061,-73.822331,Motionbox,,"{'type': 'Point', 'coordinates': [-73.822331, 40.606061]}","video, video-sharing, video-hosting, video-editing, video-streaming, personal-video, videography",17200000.0
105,5d245689f82093f85a6efd00,games_video,,2003.0,46.227638,2.213749,Kewego,65.0,"{'type': 'Point', 'coordinates': [2.213749, 46.227638]}",,19400000.0
106,5d245689f82093f85a6efd1c,games_video,,1998.0,37.09024,-95.712891,WildTangent,,"{'type': 'Point', 'coordinates': [-95.712891, 37.09024]}","games, online-games, video-games, online-advertising",84000000.0
107,5d245689f82093f85a6efd30,games_video,2008.0,2007.0,40.752516,-73.973072,WeShow,0.0,"{'type': 'Point', 'coordinates': [-73.973072, 40.752516]}","videoaggregator, videoaggregation, videosearch",5000000.0
108,5d245689f82093f85a6efd35,games_video,,2007.0,47.680496,-122.120938,Picktastic,2.0,"{'type': 'Point', 'coordinates': [-122.120938, 47.680496]}","sports, betting",
109,5d245689f82093f85a6efd3d,games_video,,2004.0,37.790346,-122.40185,PlayFirst,,"{'type': 'Point', 'coordinates': [-122.40185, 37.790346]}","mobile-games, iphone-games, ipad-games, casual-games, diner-dash, chocolatier, dream-chronicles, wedding-dash, dinertown-zoo",37700000.0
110,5d245689f82093f85a6efd4c,games_video,,,56.130366,-106.346771,Kdice,,"{'type': 'Point', 'coordinates': [-106.346771, 56.130366]}",mutiplayergaming,
111,5d245689f82093f85a6efd5a,games_video,,2006.0,47.600818,-122.334117,Delve Networks,,"{'type': 'Point', 'coordinates': [-122.334117, 47.600818]}","audio, video, podcast, search",9650000.0
112,5d245689f82093f85a6efd62,games_video,,2007.0,40.565602,-74.331811,LiveHire,5.0,"{'type': 'Point', 'coordinates': [-74.331811, 40.565602]}","Job-Interviews, Real-Time-Video-Job-Interviews, Interview-online",
113,5d245689f82093f85a6efd65,games_video,2009.0,2006.0,37.476479,-122.221717,PlayCafe,,"{'type': 'Point', 'coordinates': [-122.221717, 37.476479]}","online-gaming-network, live-games, online-games",
114,5d245689f82093f85a6efd70,games_video,,,36.1062,-115.1374,DeepRockDrive,,"{'type': 'Point', 'coordinates': [-115.1374, 36.1062]}","music, concert, livemusic",3000000.0
115,5d245689f82093f85a6efd95,games_video,,2007.0,37.775196,-122.419204,Outspark,,"{'type': 'Point', 'coordinates': [-122.419204, 37.775196]}",,23300000.0
116,5d245689f82093f85a6efda0,games_video,,2006.0,22.572646,88.363895,Scrabulous,30.0,"{'type': 'Point', 'coordinates': [88.363895, 22.572646]}","scrabble, gaming, game, facebookapp, facebookapplication",
117,5d245689f82093f85a6efda7,games_video,,,52.373812,4.890951,livecastr,,"{'type': 'Point', 'coordinates': [4.890951, 52.373812]}","livestreaming, videocalling, cellphones, videopublishing",
118,5d245689f82093f85a6efdab,games_video,,,40.748641,-73.981947,Qtrax,,"{'type': 'Point', 'coordinates': [-73.981947, 40.748641]}","p2p, music, legaldownloads",
119,5d245689f82093f85a6efdad,games_video,,,37.09024,-95.712891,iVideosongs,,"{'type': 'Point', 'coordinates': [-95.712891, 37.09024]}","music, video, tutorials",3300000.0
120,5d245689f82093f85a6efdae,games_video,,2006.0,52.6638571,-8.6267726,WorldTV,5.0,"{'type': 'Point', 'coordinates': [-8.6267726, 52.6638571]}","tv, channel, video, broadcast, web2ireland",1000000.0
121,5d245689f82093f85a6efdb1,games_video,,2008.0,34.031764,-118.461884,WonderHowTo,12.0,"{'type': 'Point', 'coordinates': [-118.461884, 34.031764]}","how-to-videos, how-to, how-to-video, wonderhowto, wonder, video, instructional-videos, video-tutorials",
122,5d245689f82093f85a6efdb3,games_video,,2006.0,51.5001524,-0.1262362,WorldTV,5.0,"{'type': 'Point', 'coordinates': [-0.1262362, 51.5001524]}","tv, channel, video, broadcast, web2ireland",1000000.0
123,5d245689f82093f85a6efdb7,games_video,,2007.0,37.765158,-122.404234,Zynga,115.0,"{'type': 'Point', 'coordinates': [-122.404234, 37.765158]}","facebookapplications, games, socialnetworking, casualgames, vcmania, facebook",860000000.0
124,5d245689f82093f85a6efdc7,games_video,,2005.0,42.964911,-85.6704213,Spout,,"{'type': 'Point', 'coordinates': [-85.6704213, 42.964911]}","films, movies, tags, dvds, groups, mavens, filmlovers, trailers, video, festivals, filmcouch",
125,5d245689f82093f85a6efdd3,games_video,,2006.0,37.09024,-95.712891,YouPorn,,"{'type': 'Point', 'coordinates': [-95.712891, 37.09024]}",mature,
126,5d245689f82093f85a6efdd4,games_video,2011.0,2007.0,59.3412176,18.0614125,TV Shack,,"{'type': 'Point', 'coordinates': [18.0614125, 59.3412176]}","piracy, video, tv, movies, anime, documentaries",
127,5d245689f82093f85a6efdf4,games_video,,2002.0,40.757929,-73.985506,Gawker Media,,"{'type': 'Point', 'coordinates': [-73.985506, 40.757929]}",,
128,5d245689f82093f85a6efdf7,games_video,,2006.0,51.500152,-0.126236,idiomag,,"{'type': 'Point', 'coordinates': [-0.126236, 51.500152]}","media, personalization, attention, attention-data, magazine, music, video, flash",
129,5d245689f82093f85a6efdfb,games_video,,2008.0,25.2948,51.5082,Triptuber,2.0,"{'type': 'Point', 'coordinates': [51.5082, 25.2948]}",,
130,5d245689f82093f85a6efe0f,games_video,,,42.375392,-71.118487,Maven Networks,0.0,"{'type': 'Point', 'coordinates': [-71.118487, 42.375392]}",,12000000.0
131,5d245689f82093f85a6efe18,games_video,,2003.0,52.5131826,13.3941489,GameDuell,200.0,"{'type': 'Point', 'coordinates': [13.3941489, 52.5131826]}","games, social, cross-platform, berlin, fun, good-time, community",17500000.0
132,5d245689f82093f85a6efe26,games_video,,2007.0,37.244187,-121.9053,JukeFly,2.0,"{'type': 'Point', 'coordinates': [-121.9053, 37.244187]}","music, streaming, social, community",
133,5d245689f82093f85a6efe4d,games_video,,2005.0,36.977905,-122.03336,Recombinant,10.0,"{'type': 'Point', 'coordinates': [-122.03336, 36.977905]}","music, interactive, interactive-music, music-apps, virtual-talent, intelligent-instruments",
134,5d245689f82093f85a6efe5f,games_video,,1999.0,36.0592598,-95.957865,TV Guide,,"{'type': 'Point', 'coordinates': [-95.957865, 36.0592598]}",,
135,5d245689f82093f85a6efe62,games_video,,1912.0,40.7577017,-73.9858165,Paramount Pictures,,"{'type': 'Point', 'coordinates': [-73.9858165, 40.7577017]}",,
136,5d245689f82093f85a6efe70,games_video,,1997.0,37.25142,-121.968687,Netflix,2000.0,"{'type': 'Point', 'coordinates': [-121.968687, 37.25142]}","movies, dvd-rental, online-video-rental, video-download, movie-download",230000000.0
137,5d245689f82093f85a6efe7a,games_video,,2011.0,37.446823,-122.161523,Social Gaming Network,100.0,"{'type': 'Point', 'coordinates': [-122.161523, 37.446823]}","social, gaming, sgn",17100000.0
138,5d245689f82093f85a6efe80,games_video,,2011.0,34.0698494,-118.4054182,Social Gaming Network,100.0,"{'type': 'Point', 'coordinates': [-118.4054182, 34.0698494]}","social, gaming, sgn",17100000.0
139,5d245689f82093f85a6efe92,games_video,,,33.874609,-117.881607,Qbox,,"{'type': 'Point', 'coordinates': [-117.881607, 33.874609]}","music, music-videos, network-music, aggregate",
140,5d245689f82093f85a6efea7,games_video,,2008.0,37.269175,-119.306607,Newsclipper,0.0,"{'type': 'Point', 'coordinates': [-119.306607, 37.269175]}","web, news, flash, video, content, embedded, tv, network, station, clip",
141,5d245689f82093f85a6efeab,games_video,2011.0,2007.0,42.36787,-71.078258,YouCastr,5.0,"{'type': 'Point', 'coordinates': [-71.078258, 42.36787]}","sports, broadcasting, live, podcasting",500000.0
142,5d245689f82093f85a6efeb1,games_video,,2006.0,32.936973,-117.240431,RiffTrax,8.0,"{'type': 'Point', 'coordinates': [-117.240431, 32.936973]}",video-humor,5000000.0
143,5d245689f82093f85a6efeb5,games_video,2010.0,2007.0,30.268735,-97.745209,FameCast,,"{'type': 'Point', 'coordinates': [-97.745209, 30.268735]}","music, video, socialnetwork, socialmedia, artists, fans, platform, social, network, profile",9700000.0
144,5d245689f82093f85a6efeb8,games_video,,2008.0,37.534317,-122.294847,CineGoGo,2.0,"{'type': 'Point', 'coordinates': [-122.294847, 37.534317]}","movie, cinema, theater, online-video, film, fan, watch, theatre, film-fan, community, download, indie, independent-film, home-theater",
145,5d245689f82093f85a6efeb9,games_video,,2007.0,37.590056,-122.347654,HD Greetings,5.0,"{'type': 'Point', 'coordinates': [-122.347654, 37.590056]}","video, high-definition, personalized, viral, ecards, marketing, web-services, greeting-cards",
146,5d245689f82093f85a6efebb,games_video,,2007.0,37.87168,-122.269494,Redux,11.0,"{'type': 'Point', 'coordinates': [-122.269494, 37.87168]}","people-discovery, discovery, people, discovery-network",8109999.999999999
147,5d245689f82093f85a6efec3,games_video,,2007.0,37.40384,-122.07808,Raptr,,"{'type': 'Point', 'coordinates': [-122.07808, 37.40384]}",,27000000.0
148,5d245689f82093f85a6efecb,games_video,,,50.791481,6.066681,iOpener,,"{'type': 'Point', 'coordinates': [6.066681, 50.791481]}",,11327150.0
149,5d245689f82093f85a6efecf,games_video,,2007.0,40.757929,-73.985506,Camlink,4.0,"{'type': 'Point', 'coordinates': [-73.985506, 40.757929]}","speed-dating, dating, video, online-speed-dating",
150,5d245689f82093f85a6efed4,games_video,2010.0,2001.0,44.977482,-93.264351,Swarmcast,,"{'type': 'Point', 'coordinates': [-93.264351, 44.977482]}","swarmcast, autobahn, streaming-video, live-streaming, internet-video, online-video-video-delivery",
151,5d245689f82093f85a6efeeb,games_video,,2001.0,34.19099,-118.486428,Animax Entertainment,55.0,"{'type': 'Point', 'coordinates': [-118.486428, 34.19099]}","creative, animation, virtual-worlds, mmogs, games, casual-games",
152,5d245689f82093f85a6efeec,games_video,,2004.0,-33.884685,151.216427,2threads,30.0,"{'type': 'Point', 'coordinates': [151.216427, -33.884685]}","fashion, social-network, music, lifestyle, beauty, art",300000.0
153,5d245689f82093f85a6efeef,games_video,,1998.0,38.6581,-77.2501,Operation Sports,4.0,"{'type': 'Point', 'coordinates': [-77.2501, 38.6581]}","sports-video-games, sports-games, games, operation-sports, sports-gaming",
154,5d245689f82093f85a6efef5,games_video,,2005.0,43.124351,5.929313,EMOB,8.0,"{'type': 'Point', 'coordinates': [5.929313, 43.124351]}","emob, elearning, video, screencast, screencasting, tutorial",
155,5d245689f82093f85a6eff14,games_video,,2007.0,43.626128,-84.227415,I Heart Movies,2.0,"{'type': 'Point', 'coordinates': [-84.227415, 43.626128]}","movies, dvd-collection, film-ratings, trailers",
156,5d245689f82093f85a6eff18,games_video,,,37.548615,-121.988479,ulink,7.0,"{'type': 'Point', 'coordinates': [-121.988479, 37.548615]}","social, bookmarking, search-engine, video",
157,5d245689f82093f85a6eff23,games_video,,2007.0,-26.665908,153.088303,Sporting Connections,1.0,"{'type': 'Point', 'coordinates': [153.088303, -26.665908]}","sports, community",
158,5d245689f82093f85a6eff46,games_video,,2001.0,40.717248,-74.002662,Boonty,150.0,"{'type': 'Point', 'coordinates': [-74.002662, 40.717248]}","games, free-online-games, community, social-casual-gaming, casual-games, video-games, pc-games, items, play-4-free, advertising-games, boonty, cafe-com",10000000.0
159,5d245689f82093f85a6eff56,games_video,,2004.0,34.031328,-118.471463,Generate,,"{'type': 'Point', 'coordinates': [-118.471463, 34.031328]}","video, professional, cross-platform, entertainment, tv, production, talent-management, research, millennials",8000000.0
160,5d245689f82093f85a6eff61,games_video,,2004.0,40.7570972,-73.969821,Generate,,"{'type': 'Point', 'coordinates': [-73.969821, 40.7570972]}","video, professional, cross-platform, entertainment, tv, production, talent-management, research, millennials",8000000.0
161,5d245689f82093f85a6eff71,games_video,,,32.7154,-117.1565,Repptide,,"{'type': 'Point', 'coordinates': [-117.1565, 32.7154]}","Politics, vote, Ideas, Actors, Celebs, Restaurants, Events, Music, sports, media, food, news, video, articles, comedy, film, religion, education",
162,5d245689f82093f85a6eff75,games_video,,2006.0,34.024453,-118.380437,WebRidesTV,10.0,"{'type': 'Point', 'coordinates': [-118.380437, 34.024453]}","car-videos, hot-rods, lowriders, exotics, luxury, start-up, streaming-video, sport-compacts, import-tuner, ferrari, web-2.0",
163,5d245689f82093f85a6eff79,games_video,,1997.0,40.761979,-74.026033,Origin Digital,80.0,"{'type': 'Point', 'coordinates': [-74.026033, 40.761979]}","video-platform, streaming-video-platform, video-hosting, live-event-broadcasting",
164,5d245689f82093f85a6eff81,games_video,2011.0,2006.0,45.516545,-73.578477,Akoha,12.0,"{'type': 'Point', 'coordinates': [-73.578477, 45.516545]}","techcrunch50, tc50",1900000.0
165,5d245689f82093f85a6eff8d,games_video,2008.0,2007.0,59.915323,10.751367,Ezmo,,"{'type': 'Point', 'coordinates': [10.751367, 59.915323]}","music, share",
166,5d245689f82093f85a6eff93,games_video,,2007.0,34.052187,-118.243425,Taltopia,3.0,"{'type': 'Point', 'coordinates': [-118.243425, 34.052187]}","socialnetworking, artists, music, video, talent, aspiring, fans, models, actors, singers, dancers, comedians",800000.0
167,5d245689f82093f85a6eff97,games_video,,2007.0,33.918151,-118.41747,ScanDigital,17.0,"{'type': 'Point', 'coordinates': [-118.41747, 33.918151]}","photo-scanning, negative-scanning, digital-photography, slide-scanning, video-transfer",350000.0
168,5d245689f82093f85a6eff9f,games_video,,2007.0,47.693994,-122.349701,SportsUltra,,"{'type': 'Point', 'coordinates': [-122.349701, 47.693994]}","sports-news, college-news, alumni-news, nfl-news, nhl-news, nba-news, mlb-news-",
169,5d245689f82093f85a6effa8,games_video,,2008.0,47.693994,-122.349701,politicsultra,,"{'type': 'Point', 'coordinates': [-122.349701, 47.693994]}","Political-news, local-poltical-news, national-political-news.",
170,5d245689f82093f85a6effad,games_video,2007.0,2007.0,41.007625,-91.962789,ScribeStorm,12.0,"{'type': 'Point', 'coordinates': [-91.962789, 41.007625]}","online-media, online-music, online-video, music-network, media-network, social-network, media-marketplace, online-marketplace",225000.0
171,5d245689f82093f85a6effd3,games_video,,2009.0,42.091078,-88.288749,Crootpad,2.0,"{'type': 'Point', 'coordinates': [-88.288749, 42.091078]}","social-networking, recruiters, split-deal, social, networking, game, layoff, layoff-survival, job-serch, interview, career, risk-managment",
172,5d245689f82093f85a6effd9,games_video,,,26.4074809,-80.1169895,FriendFinder Networks,350.0,"{'type': 'Point', 'coordinates': [-80.1169895, 26.4074809]}",keri-mowery,551000000.0
173,5d245689f82093f85a6f0015,games_video,,,37.455439,-122.204816,Omnisio,3.0,"{'type': 'Point', 'coordinates': [-122.204816, 37.455439]}","ycombinator, video, sharing, annotation",
174,5d245689f82093f85a6f0025,games_video,,,33.122499,-117.289278,Entriq,,"{'type': 'Point', 'coordinates': [-117.289278, 33.122499]}","video, new-media, content-distribution",
175,5d245689f82093f85a6f002c,games_video,,2007.0,69.636216,18.931062,Playfish,,"{'type': 'Point', 'coordinates': [18.931062, 69.636216]}","social-gaming, social-games, social-networks, facebook, myspace, widgets, applications",21000000.0
176,5d245689f82093f85a6f002f,games_video,,2007.0,51.4991094,-0.1984802,Playfish,,"{'type': 'Point', 'coordinates': [-0.1984802, 51.4991094]}","social-gaming, social-games, social-networks, facebook, myspace, widgets, applications",21000000.0
177,5d245689f82093f85a6f0033,games_video,,2007.0,40.7680901,-73.9566761,Dotsub,,"{'type': 'Point', 'coordinates': [-73.9566761, 40.7680901]}","video, technology, platform, language, captioning, translation, subtitle, subtitling, education, international, multilingual, global, mobile",
178,5d245689f82093f85a6f004e,games_video,,2007.0,55.378051,-3.435973,Slicethepie,,"{'type': 'Point', 'coordinates': [-3.435973, 55.378051]}","music, bands, investment, gambling, artists, fans",4800000.0
179,5d245689f82093f85a6f004f,games_video,,2005.0,28.559421,77.198911,Toufee,6.0,"{'type': 'Point', 'coordinates': [77.198911, 28.559421]}","flash-maker, flash-movies, fast-flash",
180,5d245689f82093f85a6f0053,games_video,,2009.0,37.772323,-122.214897,Handipoints,,"{'type': 'Point', 'coordinates': [-122.214897, 37.772323]}",,800000.0
181,5d245689f82093f85a6f0054,games_video,,,33.79802,-84.409621,Maestro,5.0,"{'type': 'Point', 'coordinates': [-84.409621, 33.79802]}","maestro, music, social, video, discovery, artists, on-demand, playlists, remote-access",750000.0
182,5d245689f82093f85a6f0060,games_video,,2008.0,37.3793718,-122.0124404,Clipta,16.0,"{'type': 'Point', 'coordinates': [-122.0124404, 37.3793718]}","online-news, entertainment, video-search, video-community, video, search, movies, clips, watch",
183,5d245689f82093f85a6f006f,games_video,,2004.0,41.241101,-96.006819,Music Arsenal,3.0,"{'type': 'Point', 'coordinates': [-96.006819, 41.241101]}",music-crm-entertainment-artist,
184,5d245689f82093f85a6f0071,games_video,,2007.0,37.775196,-122.419204,Viddyou,5.0,"{'type': 'Point', 'coordinates': [-122.419204, 37.775196]}","video, videoblogging, high-definition, 1080p, hd, personal-video",
185,5d245689f82093f85a6f0074,games_video,,2007.0,47.3612288,8.5515974,XIHA,8.0,"{'type': 'Point', 'coordinates': [8.5515974, 47.3612288]}","multilingual, social-networking, games, friends, photos, blogs, realtime, search",1000000.0
186,5d245689f82093f85a6f0076,games_video,,2007.0,60.1681494,24.9410012,XIHA,8.0,"{'type': 'Point', 'coordinates': [24.9410012, 60.1681494]}","multilingual, social-networking, games, friends, photos, blogs, realtime, search",1000000.0
187,5d245689f82093f85a6f007a,games_video,,2006.0,37.879726,-122.298015,Cozimo,,"{'type': 'Point', 'coordinates': [-122.298015, 37.879726]}","collaboration, presentations, videoediting, imageediting",
188,5d245689f82093f85a6f0089,games_video,,2007.0,37.437328,-122.159928,MyMiniLife,4.0,"{'type': 'Point', 'coordinates': [-122.159928, 37.437328]}",,430000.0
189,5d245689f82093f85a6f008b,games_video,,2003.0,37.444487,-122.163979,SonicSwap,8.0,"{'type': 'Point', 'coordinates': [-122.163979, 37.444487]}","music, social-network, playlists, itunes, apple, ipod, discover-music",
190,5d245689f82093f85a6f00a3,games_video,,2007.0,34.007967,-118.489681,Mytopia,29.0,"{'type': 'Point', 'coordinates': [-118.489681, 34.007967]}","techcrunch50, tc50, gaming, social-networks",3500000.0
191,5d245689f82093f85a6f00ae,games_video,,,42.958747,-75.963326,DivShare,,"{'type': 'Point', 'coordinates': [-75.963326, 42.958747]}","hosting, photos, videos, documents, publishing",
192,5d245689f82093f85a6f00b4,games_video,2009.0,2007.0,51.539778,-0.152998,Pikum,15.0,"{'type': 'Point', 'coordinates': [-0.152998, 51.539778]}","gaming, social-networks, first-round-capital, web-2.0, gambling, betting, sports, pop-culture, competition",5920000.0
193,5d245689f82093f85a6f00b6,games_video,,2007.0,40.84014,-74.276451,HungryFlix,4.0,"{'type': 'Point', 'coordinates': [-74.276451, 40.84014]}","ipod, iphone, psp, movies, film, video, movie-download",
194,5d245689f82093f85a6f00be,games_video,,,34.0195,-118.4906,ibeatyou,,"{'type': 'Point', 'coordinates': [-118.4906, 34.0195]}",video,1000000.0
195,5d245689f82093f85a6f00c9,games_video,,2007.0,48.887824,2.402304,itbreaks,4.0,"{'type': 'Point', 'coordinates': [2.402304, 48.887824]}",music,
196,5d245689f82093f85a6f00d1,games_video,,2008.0,37.269175,-119.306607,Episodic,6.0,"{'type': 'Point', 'coordinates': [-119.306607, 37.269175]}",,
197,5d245689f82093f85a6f00e1,games_video,,2008.0,49.2767775,-123.1210616,Rosterbot,,"{'type': 'Point', 'coordinates': [-123.1210616, 49.2767775]}","sports-management, youth-athletics, athletic-team-management",
198,5d245689f82093f85a6f00e2,games_video,2011.0,2007.0,45.271401,-66.061181,YourTeamOnline,2.0,"{'type': 'Point', 'coordinates': [-66.061181, 45.271401]}","sports-management, youth-athletics, athletic-team-management",38297.0
199,5d245689f82093f85a6f0106,games_video,,2002.0,40.010492,-105.276843,Realtime Worlds,225.0,"{'type': 'Point', 'coordinates': [-105.276843, 40.010492]}",games,82800000.0
200,5d245689f82093f85a6f010b,games_video,,2002.0,56.461428,-2.968111,Realtime Worlds,225.0,"{'type': 'Point', 'coordinates': [-2.968111, 56.461428]}",games,82800000.0
201,5d245689f82093f85a6f0114,games_video,,2008.0,34.153588,-118.422495,AudioMicro,10.0,"{'type': 'Point', 'coordinates': [-118.422495, 34.153588]}","music, audio, royalty-free-music, production-music, music-cues, catalog, artists, license, songs, independent, , license-music, buyout-music, commercial-music, sound-effects, stock-music, content-licensing, free-sound-effects, micro-stock, music-licensing",1250000.0
202,5d245689f82093f85a6f011d,games_video,,2007.0,48.122346,11.558864,Zankapfel,2.0,"{'type': 'Point', 'coordinates': [11.558864, 48.122346]}","zankapfel, competition, gaming, voting",
203,5d245689f82093f85a6f011f,games_video,,2005.0,40.73993,-73.9930489,Cellufun,30.0,"{'type': 'Point', 'coordinates': [-73.9930489, 40.73993]}",cellufun,5230000.0
204,5d245689f82093f85a6f0121,games_video,,2007.0,40.43094,-3.6952896,eRepublik,30.0,"{'type': 'Point', 'coordinates': [-3.6952896, 40.43094]}","erepublik, alexis-bonte, mmog, mmogs, games, online-games, virtual-worlds, strategy, social-network, ugc",3084125.0
205,5d245689f82093f85a6f012a,games_video,,2008.0,37.775196,-122.419204,stickychicken,2.0,"{'type': 'Point', 'coordinates': [-122.419204, 37.775196]}","games, sports, activities, events, pickup, teams, groups, meetup, play",
206,5d245689f82093f85a6f0147,games_video,,2007.0,34.02634,-118.477689,Topspin Media,,"{'type': 'Point', 'coordinates': [-118.477689, 34.02634]}","music, artists, marketing",
207,5d245689f82093f85a6f0168,games_video,,2008.0,39.7393,-89.266508,Guitarati,,"{'type': 'Point', 'coordinates': [-89.266508, 39.7393]}","guitarati, online-music, music-discovery, music-color-relationship, music, intuitive-music-discovery",
208,5d245689f82093f85a6f0170,games_video,,2007.0,20.593684,78.96288,Myplaylist,1.0,"{'type': 'Point', 'coordinates': [78.96288, 20.593684]}","music, playlist",
209,5d245689f82093f85a6f017d,games_video,,1997.0,40.766332,-73.981828,South Park Studios,,"{'type': 'Point', 'coordinates': [-73.981828, 40.766332]}","south-park, video, tv, comedy",
210,5d245689f82093f85a6f017e,games_video,,2008.0,56.879635,24.603189,Teet,,"{'type': 'Point', 'coordinates': [24.603189, 56.879635]}","prizes, giveaways, contests",
211,5d245689f82093f85a6f01a2,games_video,2012.0,2007.0,49.282249,-123.108456,Vivity Labs,10.0,"{'type': 'Point', 'coordinates': [-123.108456, 49.282249]}","brain-games, brain-fitness, brain-gym, brain-health",1000000.0
212,5d245689f82093f85a6f01a3,games_video,,2002.0,40.758504,-73.980068,Velocix,,"{'type': 'Point', 'coordinates': [-73.980068, 40.758504]}","livestreaming, cdn, contentdeliverynetwork, videostreaming, flashstreaming, video, caching, hd, high-definition-video-streaming, progressive-download",25000000.0
213,5d245689f82093f85a6f01d9,games_video,,1963.0,39.9525762,-75.1652518,Comcast,100000.0,"{'type': 'Point', 'coordinates': [-75.1652518, 39.9525762]}",,725000000.0
214,5d245689f82093f85a6f01f8,games_video,,2008.0,17.415429,78.434422,YUPPTV,70.0,"{'type': 'Point', 'coordinates': [78.434422, 17.415429]}","yupptv, live-tv, online-tv, internet-television",
215,5d245689f82093f85a6f0202,games_video,,2007.0,40.75451,-73.992193,NEHST Studios,,"{'type': 'Point', 'coordinates': [-73.992193, 40.75451]}","contentproduction, contentdistribution, films, tv",
216,5d245689f82093f85a6f0220,games_video,,2004.0,-37.814251,144.963169,Beep Interactive,2.0,"{'type': 'Point', 'coordinates': [144.963169, -37.814251]}","sms, personalized-homepage, homepage, search, record-video, flash-video",
217,5d245689f82093f85a6f0224,games_video,2009.0,2006.0,34.007967,-118.489681,PluggedIn,0.0,"{'type': 'Point', 'coordinates': [-118.489681, 34.007967]}","pluggedin, music, sony-bmg, umg, emi, music-videos, videos, hulu, will-smith",2000000.0
218,5d245689f82093f85a6f0227,games_video,,2008.0,37.756922,-122.42087,Sutros,3.0,"{'type': 'Point', 'coordinates': [-122.42087, 37.756922]}",music,
219,5d245689f82093f85a6f0228,games_video,,2007.0,31.046051,34.851612,imcandy,4.0,"{'type': 'Point', 'coordinates': [34.851612, 31.046051]}","imcandy, video, videos, ugc, advertisers",
220,5d245689f82093f85a6f023c,games_video,,2005.0,40.016582,-105.253601,Medioh!,15.0,"{'type': 'Point', 'coordinates': [-105.253601, 40.016582]}","video, search, RSS, API, set-top-box, iPhone, mobile-video",
221,5d245689f82093f85a6f024a,games_video,,2006.0,39.786948,-75.485407,Podbean LLC,10.0,"{'type': 'Point', 'coordinates': [-75.485407, 39.786948]}","podcast, podcasting, audio-blog, video-blog",
222,5d245689f82093f85a6f0252,games_video,,2007.0,40.543996,-74.179231,Drop Magazine,,"{'type': 'Point', 'coordinates': [-74.179231, 40.543996]}","music, online-magazine",
223,5d245689f82093f85a6f0265,games_video,,2007.0,37.44236,-122.161025,MUBI,20.0,"{'type': 'Point', 'coordinates': [-122.161025, 37.44236]}","film, movie, cinema, video, art-house, social-media, social-network",8250000.0
224,5d245689f82093f85a6f0277,games_video,,2007.0,37.44296,-122.151198,Omnivents,5.0,"{'type': 'Point', 'coordinates': [-122.151198, 37.44296]}","crowdsourced-social-games, trivia-games, user-generated-social-games, social-games, applications, social-networking, social-networks",
225,5d245689f82093f85a6f0278,games_video,,2007.0,34.085749,-118.343791,Modern Feed,123.0,"{'type': 'Point', 'coordinates': [-118.343791, 34.085749]}","video-programming, tv-guide, online-guide",3000000.0
226,5d245689f82093f85a6f028d,games_video,,2007.0,37.35351,-122.030476,FeedFlix,2.0,"{'type': 'Point', 'coordinates': [-122.030476, 37.35351]}",feedflix-netflix-movies-dvd-rental,
227,5d245689f82093f85a6f0290,games_video,,2006.0,-33.88106,151.209351,SuperVirals,5.0,"{'type': 'Point', 'coordinates': [151.209351, -33.88106]}","viral, video, media, UGC, consumer, brands, competition",
228,5d245689f82093f85a6f0299,games_video,,2006.0,37.269175,-119.306607,Oortle,,"{'type': 'Point', 'coordinates': [-119.306607, 37.269175]}","video, photos, sharing, community",
229,5d245689f82093f85a6f029a,games_video,,,42.395308,-71.121885,Calabash Music,,"{'type': 'Point', 'coordinates': [-71.121885, 42.395308]}","microfinancing, music, musicians",
230,5d245689f82093f85a6f029b,games_video,,,57.77578,11.875103,Chilirec,,"{'type': 'Point', 'coordinates': [11.875103, 57.77578]}","music, recording, internet-radio",
231,5d245689f82093f85a6f029e,games_video,,2008.0,37.7893215,-122.4013624,Serious Business,22.0,"{'type': 'Point', 'coordinates': [-122.4013624, 37.7893215]}","facebook, social-games",4000000.0
232,5d245689f82093f85a6f02ae,games_video,,,47.24496,-1.588593,weeloop,,"{'type': 'Point', 'coordinates': [-1.588593, 47.24496]}","vertical-social-network, music, DJ, community",
233,5d245689f82093f85a6f02bf,games_video,,2008.0,52.472029,-0.698361,twit+,1.0,"{'type': 'Point', 'coordinates': [-0.698361, 52.472029]}","twitter, video, picture, file-share, micro-blogging, blogginb, file-exchange, secure-file-share",
234,5d245689f82093f85a6f02c1,games_video,,,33.108559,-117.298979,Anistock,20.0,"{'type': 'Point', 'coordinates': [-117.298979, 33.108559]}","animation, video-backgrounds, motion-graphics, video-loops, flash-animations",
235,5d245689f82093f85a6f02c9,games_video,,2007.0,34.0424511,-84.2756367,URockHard,,"{'type': 'Point', 'coordinates': [-84.2756367, 34.0424511]}","music, social-network, video, user-generated-music",
236,5d245689f82093f85a6f02e2,games_video,,2006.0,37.3944561,-122.0785314,Kabam,650.0,"{'type': 'Point', 'coordinates': [-122.0785314, 37.3944561]}","social-media, web2-0, social-networking, social-games, interactive-entertainment",125000000.0
237,5d245689f82093f85a6f02e3,games_video,,2006.0,33.887112,-117.729229,MyAnimeList,,"{'type': 'Point', 'coordinates': [-117.729229, 33.887112]}","anime, manga, community, anime-social-network, manga-social-network",
238,5d245689f82093f85a6f02eb,games_video,,,42.214483,-71.185964,Turbine,200.0,"{'type': 'Point', 'coordinates': [-71.185964, 42.214483]}","game, online-games, social-gaming, role-playing-games",76600000.0
239,5d245689f82093f85a6f02ed,games_video,,,37.477652,-122.223384,Turbine,200.0,"{'type': 'Point', 'coordinates': [-122.223384, 37.477652]}","game, online-games, social-gaming, role-playing-games",76600000.0
240,5d245689f82093f85a6f02f7,games_video,,,56.130366,-106.346771,XSketch,,"{'type': 'Point', 'coordinates': [-106.346771, 56.130366]}",multiplayer-gaming,
241,5d245689f82093f85a6f030d,games_video,,2008.0,32.240301,-110.958319,Rekatu,5.0,"{'type': 'Point', 'coordinates': [-110.958319, 32.240301]}","micronetwork, social-network, music, pictures",
242,5d245689f82093f85a6f0312,games_video,,,43.670233,-79.386755,GPokr,1.0,"{'type': 'Point', 'coordinates': [-79.386755, 43.670233]}","poker, texas-hold-em, card-games",
243,5d245689f82093f85a6f0319,games_video,,,37.777513,-122.397044,Citizen Sports,27.0,"{'type': 'Point', 'coordinates': [-122.397044, 37.777513]}",sports,10000000.0
244,5d245689f82093f85a6f031a,games_video,,2008.0,32.0554,34.7595,Jinni,35.0,"{'type': 'Point', 'coordinates': [34.7595, 32.0554]}","movie-recommendation-engine, tv-recommendation-engine, discovery-engine, movie-discovery, tv-discovery, video-on-demand, recommendation-service, semantic-search, movie-genome, semantic-recommendations, tv-genome",8100000.0
245,5d245689f82093f85a6f031c,games_video,2007.0,,37.09024,-95.712891,Text America,,"{'type': 'Point', 'coordinates': [-95.712891, 37.09024]}","moblog, photo-sharing, video-sharing, online-photo-album",
246,5d245689f82093f85a6f031d,games_video,,2007.0,33.075067,-96.823962,GodTube,,"{'type': 'Point', 'coordinates': [-96.823962, 33.075067]}","christian, social-network, online-video-sharing",32500000.0
247,5d245689f82093f85a6f032d,games_video,,2007.0,37.652325,-122.464349,FantasyBook,3.0,"{'type': 'Point', 'coordinates': [-122.464349, 37.652325]}","facebook, fantasy-sports, fantasy-baseball, fantasy-football",
248,5d245689f82093f85a6f0339,games_video,,2006.0,34.052187,-118.243425,OVGuide,,"{'type': 'Point', 'coordinates': [-118.243425, 34.052187]}","video-directory, online-video-search, video-discovery, online-video-guide",7980000.0
249,5d245689f82093f85a6f0342,games_video,,,37.445714,-122.161247,Layerstream,4.0,"{'type': 'Point', 'coordinates': [-122.161247, 37.445714]}","layered-stream, streaming-video",
250,5d245689f82093f85a6f035f,games_video,,2006.0,50.945289,6.921546,sevenload,67.0,"{'type': 'Point', 'coordinates': [6.921546, 50.945289]}","fotos, photos, videos, foto, photo, video, clip, clips, bild, bilder, komisch, lustig, frei, trailer, community, teilen, sharing, iptv, pics, picz, vids, vidz, widgets, fotografie, fotographie",28037500.0
251,5d245689f82093f85a6f036d,games_video,,2006.0,54.971346,-1.611141,amazingtunes,,"{'type': 'Point', 'coordinates': [-1.611141, 54.971346]}","music, discovery, marketplace",1751854.0
252,5d245689f82093f85a6f0376,games_video,,2008.0,50.231464,-5.236903,RouteNote,,"{'type': 'Point', 'coordinates': [-5.236903, 50.231464]}","indie, user-driven, music, distribution",
253,5d245689f82093f85a6f0395,games_video,,2011.0,37.760524,-122.387799,Fuzz,6.0,"{'type': 'Point', 'coordinates': [-122.387799, 37.760524]}","music, promotion, artists",
254,5d245689f82093f85a6f03a1,games_video,,2007.0,59.332788,18.064488,Posh24,5.0,"{'type': 'Point', 'coordinates': [18.064488, 59.332788]}","celebrity, gossip, magazine, blog, sweden",
255,5d245689f82093f85a6f03b8,games_video,,2007.0,34.155869,-118.335292,MeFeedia,13.0,"{'type': 'Point', 'coordinates': [-118.335292, 34.155869]}","video-search, discovery, video, videosearch, multimediasearch, videoaggregator, watch, viral, games, tv, movies, clips, news, animation, music, vlogs, podcasts, celebrity, video-ads, marketing, mobile, apps, tablets, kids",250000.0
256,5d245689f82093f85a6f03c4,games_video,,,41.910737,-87.674015,Pitchfork Media,,"{'type': 'Point', 'coordinates': [-87.674015, 41.910737]}",indie-music,
257,5d245689f82093f85a6f03c9,games_video,,,25.813099,-80.122986,Canal Internet,,"{'type': 'Point', 'coordinates': [-80.122986, 25.813099]}","spanish, tv, video",
258,5d245689f82093f85a6f03d2,games_video,,2006.0,48.1607175,11.553749,Hobnox,,"{'type': 'Point', 'coordinates': [11.553749, 48.1607175]}","webtv, music, film, culture, media, library, community, creative, artists",
259,5d245689f82093f85a6f03e2,games_video,,,37.09024,-95.712891,Sony Pictures Entertainment,,"{'type': 'Point', 'coordinates': [-95.712891, 37.09024]}","movies, tv",
260,5d245689f82093f85a6f03f2,games_video,,2007.0,34.048857,-118.251343,Sometrics,35.0,"{'type': 'Point', 'coordinates': [-118.251343, 34.048857]}","analytics, social-media, social-networking, advertising, sometrics, virtual-currency, alternative-payment, micro-transactions",5550000.0
261,5d245689f82093f85a6f041d,games_video,,2008.0,41.387917,2.169919,Wuapi,,"{'type': 'Point', 'coordinates': [2.169919, 41.387917]}","video, video-sharing, hd",
262,5d245689f82093f85a6f0437,games_video,,2002.0,33.934558,-118.3962622,GameFly,,"{'type': 'Point', 'coordinates': [-118.3962622, 33.934558]}",,10700000.0
263,5d245689f82093f85a6f0449,games_video,,2005.0,37.848641,-122.289498,Fliqz,25.0,"{'type': 'Point', 'coordinates': [-122.289498, 37.848641]}",,12200000.0
264,5d245689f82093f85a6f044e,games_video,,2004.0,43.6436826,-79.4038652,Batipi,5.0,"{'type': 'Point', 'coordinates': [-79.4038652, 43.6436826]}","web-conferencing, video-conferencing, zoho-solutions",
265,5d245689f82093f85a6f0451,games_video,,2008.0,42.375392,-71.118487,YouTomb,,"{'type': 'Point', 'coordinates': [-71.118487, 42.375392]}","videos, youtube, copyright-ingringement",
266,5d245689f82093f85a6f0460,games_video,,2005.0,37.453665,-122.229069,Moblyng,,"{'type': 'Point', 'coordinates': [-122.229069, 37.453665]}",,19100000.0
267,5d245689f82093f85a6f0477,games_video,,,59.337161,18.057901,Kamera,,"{'type': 'Point', 'coordinates': [18.057901, 59.337161]}","video, web-tv, iptv, mobile-tv",
268,5d245689f82093f85a6f047e,games_video,,2007.0,34.169493,-118.312902,Open Television Network,3.0,"{'type': 'Point', 'coordinates': [-118.312902, 34.169493]}","rss, online-video, video-download, sell-video, podcast",
269,5d245689f82093f85a6f047f,games_video,,2006.0,40.531199,-74.600858,itMayBe Media,3.0,"{'type': 'Point', 'coordinates': [-74.600858, 40.531199]}","music, blogs, music-search, music-news",
270,5d245689f82093f85a6f0485,games_video,2010.0,2008.0,50.123306,-122.96391,hearwhere,2.0,"{'type': 'Point', 'coordinates': [-122.96391, 50.123306]}","music, live-music, concerts, music-discovery",
271,5d245689f82093f85a6f048f,games_video,,2000.0,43.400422,5.055732,sph3re,1.0,"{'type': 'Point', 'coordinates': [5.055732, 43.400422]}","animation, video, ugc, jobs, resume",
272,5d245689f82093f85a6f049f,games_video,,2001.0,37.781689,-122.391061,iWin,103.0,"{'type': 'Point', 'coordinates': [-122.391061, 37.781689]}","casual-games, games, publisher, developer, community",
273,5d245689f82093f85a6f04b0,games_video,,2006.0,33.553846,-84.720134,Pangaeaa Enterprises,3.0,"{'type': 'Point', 'coordinates': [-84.720134, 33.553846]}","social-networking, art, music, literature, talent, painting, photoography, online-community",
274,5d245689f82093f85a6f04b4,games_video,,1986.0,34.138198,-118.360617,Codemasters,,"{'type': 'Point', 'coordinates': [-118.360617, 34.138198]}","game, online-games, interactive-entertainment",
275,5d245689f82093f85a6f04b5,games_video,,2004.0,37.775196,-122.419204,PurePlay,,"{'type': 'Point', 'coordinates': [-122.419204, 37.775196]}","games, poker, online-poker",15000000.0
276,5d245689f82093f85a6f04d4,games_video,,2005.0,47.634731,-122.27962,IndieFlix,,"{'type': 'Point', 'coordinates': [-122.27962, 47.634731]}","movies, independent-film, filmmakers, audience, film-festival, streaming-movies, short-films, feature-films, documentaries, award-winning-films",
277,5d245689f82093f85a6f04d7,games_video,,,40.757929,-73.985506,ConcertAttack,,"{'type': 'Point', 'coordinates': [-73.985506, 40.757929]}","social-network, concerts, music",
278,5d245689f82093f85a6f04de,games_video,,2005.0,33.228284,-116.995957,The Television Writers Vault,3.0,"{'type': 'Point', 'coordinates': [-116.995957, 33.228284]}","television, ideas, pitch-ideas, reality-tv, hollywood, reality-shows, screenwriting, tv-producers",
279,5d245689f82093f85a6f04e9,games_video,,2007.0,31.046051,34.851612,Cam-Trax Technologies,,"{'type': 'Point', 'coordinates': [34.851612, 31.046051]}","track-objects, webcam",200000.0
280,5d245689f82093f85a6f0505,games_video,,2006.0,37.44296,-122.151198,Hive7,5.0,"{'type': 'Point', 'coordinates': [-122.151198, 37.44296]}","web, social, games, mmo, facebook, entertainment",
281,5d245689f82093f85a6f0518,games_video,,,34.1395597,-118.3870991,MeDeploy,,"{'type': 'Point', 'coordinates': [-118.3870991, 34.1395597]}","pay-media, video, distribution, api, web, mobile, social-networks, film-distributors, studios, filmmakers, feature-films, television, movies, content",
282,5d245689f82093f85a6f051a,games_video,,2008.0,41.3083,-72.9287,snuzu,,"{'type': 'Point', 'coordinates': [-72.9287, 41.3083]}","music, social-music",
283,5d245689f82093f85a6f0531,games_video,,2008.0,27.698682,-83.804475,TriFame,,"{'type': 'Point', 'coordinates': [-83.804475, 27.698682]}","trifame, talent, music, modeling, dance, music-videos, talent-contest, contests, entertainment, artists, artist, musicians, models, dancers, get-discovered",
284,5d245689f82093f85a6f0536,games_video,,2007.0,48.185529,11.603542,bendecho,,"{'type': 'Point', 'coordinates': [11.603542, 48.185529]}","video-sharing, video-site, user-generated-video",
285,5d245689f82093f85a6f0540,games_video,,,26.367481,-80.114723,eJamming,,"{'type': 'Point', 'coordinates': [-80.114723, 26.367481]}","shared-live-music, voip-music, remote-music",1840000.0
286,5d245689f82093f85a6f0546,games_video,,2005.0,40.704382,-73.986572,TuneCore,,"{'type': 'Point', 'coordinates': [-73.986572, 40.704382]}","music-store, band, music",7000000.0
287,5d245689f82093f85a6f054e,games_video,,1997.0,33.817752,-84.120458,CCP Games,360.0,"{'type': 'Point', 'coordinates': [-84.120458, 33.817752]}","eve-online, eve, game, virtual-world, metaverse, icelandic",36300000.0
288,5d245689f82093f85a6f0558,games_video,2010.0,2008.0,37.41924,-122.208414,Gamook,,"{'type': 'Point', 'coordinates': [-122.208414, 37.41924]}",casual-games,1500000.0
289,5d245689f82093f85a6f0562,games_video,,2007.0,37.269175,-119.306607,Dizzywood,,"{'type': 'Point', 'coordinates': [-119.306607, 37.269175]}","virtual-world, games, kids, everthing-kids-and-tweens-plus-teens",2000000.0
290,5d245689f82093f85a6f0574,games_video,,2005.0,43.7123092,-79.3995384,LyricFind,15.0,"{'type': 'Point', 'coordinates': [-79.3995384, 43.7123092]}","music, lyrics, digital-music, entertainent, licensing",
291,5d245689f82093f85a6f0582,games_video,,1989.0,33.8231,-118.328584,Knowledge Adventure,,"{'type': 'Point', 'coordinates': [-118.328584, 33.8231]}",,26800000.0
292,5d245689f82093f85a6f0586,games_video,,2006.0,44.494446,11.349231,Jungle Jam Tv,1.0,"{'type': 'Point', 'coordinates': [11.349231, 44.494446]}","travel, video-guides, guide, tourism, information, tour, churches, museums",
293,5d245689f82093f85a6f05a2,games_video,,,40.765283,-73.982007,Vroengard Academy,,"{'type': 'Point', 'coordinates': [-73.982007, 40.765283]}","virtual-game, online-game, games-online",
294,5d245689f82093f85a6f05a4,games_video,,2007.0,25.887462,-80.166155,Openfilm,35.0,"{'type': 'Point', 'coordinates': [-80.166155, 25.887462]}","video, videos, free-video, video-sharing, film, content, premium-videos, high-quality, original, original-content, short-films, animation, high-definition-video, user-generated-content, user-generated-films",
295,5d245689f82093f85a6f05b0,games_video,,,37.09024,-95.712891,VideoFetcher,,"{'type': 'Point', 'coordinates': [-95.712891, 37.09024]}","video, search, search-engine",
296,5d245689f82093f85a6f05d4,games_video,,,39.948587,-75.145654,Sivoo,8.0,"{'type': 'Point', 'coordinates': [-75.145654, 39.948587]}","video, web-video, video-distribution",
297,5d245689f82093f85a6f05dc,games_video,,2008.0,33.921969,-117.249376,Faneebo,1.0,"{'type': 'Point', 'coordinates': [-117.249376, 33.921969]}","music, fans, bands, musicians, fan-club, artists, create, join",
298,5d245689f82093f85a6f0603,games_video,,1988.0,33.898828,-118.383715,Marvel Entertainment,,"{'type': 'Point', 'coordinates': [-118.383715, 33.898828]}",,
299,5d245689f82093f85a6f0605,games_video,,1988.0,40.750576,-73.982713,Marvel Entertainment,,"{'type': 'Point', 'coordinates': [-73.982713, 40.750576]}",,
300,5d245689f82093f85a6f060e,games_video,,2009.0,37.412069,-121.900366,Vusion,,"{'type': 'Point', 'coordinates': [-121.900366, 37.412069]}","video, streaming, high-definition",
301,5d245689f82093f85a6f0615,games_video,,2010.0,53.544711,-113.515769,Titan Gaming,18.0,"{'type': 'Point', 'coordinates': [-113.515769, 53.544711]}","web-platform, gaming, social-network, games",1000000.0
302,5d245689f82093f85a6f061e,games_video,,2004.0,59.345553,18.037611,Stardoll,,"{'type': 'Point', 'coordinates': [18.037611, 59.345553]}","dolls, mature-tweens, girls",10000000.0
303,5d245689f82093f85a6f063d,games_video,,2006.0,-41.565586,147.196096,WhatYah!,2.0,"{'type': 'Point', 'coordinates': [147.196096, -41.565586]}","catalog-movies, trade-movies, create-movie-reviews",
304,5d245689f82093f85a6f0666,games_video,,,40.722266,-73.999044,Soundwalk,,"{'type': 'Point', 'coordinates': [-73.999044, 40.722266]}",,
305,5d245689f82093f85a6f068c,games_video,,,51.500152,-0.126236,Vigster,,"{'type': 'Point', 'coordinates': [-0.126236, 51.500152]}","gaming, social-network, community, video-gaming, portal",62566.0
306,5d245689f82093f85a6f06a3,games_video,,2007.0,39.951053,-75.197465,Sport Interactiva,4.0,"{'type': 'Point', 'coordinates': [-75.197465, 39.951053]}",sports-facebook-apps-open-social-games-2-0,
307,5d245689f82093f85a6f06cb,games_video,,2008.0,33.64873,-112.051346,Bragosphere,3.0,"{'type': 'Point', 'coordinates': [-112.051346, 33.64873]}","bragosphere, brag-book, brag-page, social-networking, photos, video, photo-album, video-album, virtual-photo-album",
308,5d245689f82093f85a6f06e4,games_video,,2006.0,40.720764,-73.957968,VBS TV,100.0,"{'type': 'Point', 'coordinates': [-73.957968, 40.720764]}","iptv, web-video, online-video",10000000.0
309,5d245689f82093f85a6f06f1,games_video,,1998.0,37.786393,-122.3987745,eBaum's World,,"{'type': 'Point', 'coordinates': [-122.3987745, 37.786393]}","video, humor, prank-calls",
310,5d245689f82093f85a6f06f2,games_video,,2006.0,37.791391,-122.402859,Overstream,3.0,"{'type': 'Point', 'coordinates': [-122.402859, 37.791391]}","videos, captions, subtitles, online-videos, youtube",
311,5d245689f82093f85a6f06f4,games_video,,,34.031646,-118.455352,Fandango,,"{'type': 'Point', 'coordinates': [-118.455352, 34.031646]}","movies, movie-tickets",
312,5d245689f82093f85a6f06fd,games_video,,2008.0,59.437214,24.768664,Yaika,26.0,"{'type': 'Point', 'coordinates': [24.768664, 59.437214]}","video, radio, broadcasting, blog, blogging, social, community, communicate",
313,5d245689f82093f85a6f070b,games_video,,2011.0,49.263588,-123.138565,Pixelmatic,10.0,"{'type': 'Point', 'coordinates': [-123.138565, 49.263588]}","apple-ios, android, skill-games, games, casual-games, casual-core, true-social, social-games, messaging-app-games, wechat",
314,5d245689f82093f85a6f0723,games_video,,2007.0,40.754762,-73.988543,My Damn Channel,10.0,"{'type': 'Point', 'coordinates': [-73.988543, 40.754762]}","video, media-platform",8660000.0
315,5d245689f82093f85a6f0726,games_video,,2007.0,33.9019543,-118.3872018,My Damn Channel,10.0,"{'type': 'Point', 'coordinates': [-118.3872018, 33.9019543]}","video, media-platform",8660000.0
316,5d245689f82093f85a6f0741,games_video,2011.0,2007.0,33.918589,-118.393719,Cyloop,50.0,"{'type': 'Point', 'coordinates': [-118.393719, 33.918589]}","music, video, radio, streaming, playiist, loop, entertainment, social-network, mobile, recommendaion-engine, hispanics, latin, latinamerica, spain, music-recommendation, on-demand, free, artists, fans",
317,5d245689f82093f85a6f0743,games_video,2011.0,2007.0,40.5288449,-3.6429907,Cyloop,50.0,"{'type': 'Point', 'coordinates': [-3.6429907, 40.5288449]}","music, video, radio, streaming, playiist, loop, entertainment, social-network, mobile, recommendaion-engine, hispanics, latin, latinamerica, spain, music-recommendation, on-demand, free, artists, fans",
318,5d245689f82093f85a6f0744,games_video,2011.0,2007.0,25.787252,-80.13183,Cyloop,50.0,"{'type': 'Point', 'coordinates': [-80.13183, 25.787252]}","music, video, radio, streaming, playiist, loop, entertainment, social-network, mobile, recommendaion-engine, hispanics, latin, latinamerica, spain, music-recommendation, on-demand, free, artists, fans",
319,5d245689f82093f85a6f0752,games_video,,,47.577244,-122.132063,Liberty Sports Group,,"{'type': 'Point', 'coordinates': [-122.132063, 47.577244]}","sports, fox-sports-net",
320,5d245689f82093f85a6f0783,games_video,,,37.667304,-122.382792,LuckySurf,,"{'type': 'Point', 'coordinates': [-122.382792, 37.667304]}",,
321,5d245689f82093f85a6f078a,games_video,,2006.0,33.465063,-111.926112,CareerTours,17.0,"{'type': 'Point', 'coordinates': [-111.926112, 33.465063]}","career-video, job-board, recruiter-solution, video-resume",
322,5d245689f82093f85a6f078e,games_video,,2006.0,37.421142,-122.101182,Veeple,,"{'type': 'Point', 'coordinates': [-122.101182, 37.421142]}","interactive-media, video, clickable-video, digital-media",
323,5d245689f82093f85a6f078f,games_video,,2000.0,48.891494,2.292728,Mediastay,,"{'type': 'Point', 'coordinates': [2.292728, 48.891494]}",,21500000.0
324,5d245689f82093f85a6f07bc,games_video,,2007.0,40.72616,-74.006023,Spill,,"{'type': 'Point', 'coordinates': [-74.006023, 40.72616]}","movies, movie-reviews",
325,5d245689f82093f85a6f0806,games_video,,2003.0,39.9418783,-74.9291168,Celebrity Seats,,"{'type': 'Point', 'coordinates': [-74.9291168, 39.9418783]}","ticket-broker, concert-tickets, sports-tickets, theatre-tickets",
326,5d245689f82093f85a6f081d,games_video,,2008.0,40.727434,-73.9447994,GEN247,12.0,"{'type': 'Point', 'coordinates': [-73.9447994, 40.727434]}",alternate-reality-games,
327,5d245689f82093f85a6f0827,games_video,,1998.0,37.906966,-122.545763,Fluid Entertainment,,"{'type': 'Point', 'coordinates': [-122.545763, 37.906966]}","virtual-world, gamine, games, children",3200000.0
328,5d245689f82093f85a6f0828,games_video,,,33.9133208,-117.8789031,Numedeon,,"{'type': 'Point', 'coordinates': [-117.8789031, 33.9133208]}",virtual-world,1000000.0
329,5d245689f82093f85a6f0831,games_video,,,39.914449,-75.066061,Jambo Media,,"{'type': 'Point', 'coordinates': [-75.066061, 39.914449]}",video-solutions,
330,5d245689f82093f85a6f0835,games_video,,,40.753652,-73.98594,Jambo Media,,"{'type': 'Point', 'coordinates': [-73.98594, 40.753652]}",video-solutions,
331,5d245689f82093f85a6f0842,games_video,2010.0,2007.0,26.037363,-81.741456,Kickplay,4.0,"{'type': 'Point', 'coordinates': [-81.741456, 26.037363]}","personalized-games, personal-games, flash-games, online-games, funny-games",
332,5d245689f82093f85a6f0844,games_video,,2006.0,48.8475487,2.2992348,YOOWALK,10.0,"{'type': 'Point', 'coordinates': [2.2992348, 48.8475487]}",virtual-world,
333,5d245689f82093f85a6f085e,games_video,,2008.0,35.779748,-78.643414,Bars For Us,4.0,"{'type': 'Point', 'coordinates': [-78.643414, 35.779748]}","raleigh, entertainment, rtpstartup, bars, nightlife, startupweekend",
334,5d245689f82093f85a6f0861,games_video,,2008.0,40.724289,-73.980587,GigMaven,8.0,"{'type': 'Point', 'coordinates': [-73.980587, 40.724289]}","live-music, independent-music, music-booking, music-promotion, social-network",
335,5d245689f82093f85a6f0866,games_video,,1999.0,35.1286571,33.3250705,Mobilenobo,16.0,"{'type': 'Point', 'coordinates': [33.3250705, 35.1286571]}","send-video-to-mobile, mobile-content, mobile-affiliate, video-portal, web-video, mobile-video",
336,5d245689f82093f85a6f0868,games_video,,2006.0,34.0025911,-118.3942383,Riot Games,,"{'type': 'Point', 'coordinates': [-118.3942383, 34.0025911]}",,8000000.0
337,5d245689f82093f85a6f086b,games_video,,2008.0,37.780134,-122.396744,Scavenja,8.0,"{'type': 'Point', 'coordinates': [-122.396744, 37.780134]}","scavenger-hunt, gaming, game, photo, picture, scavenja-com",
338,5d245689f82093f85a6f0875,games_video,,2008.0,41.83,-71.41,World Wide Talent Search,1.0,"{'type': 'Point', 'coordinates': [-71.41, 41.83]}","talent, search, world, entertainment, music, modeling, model, dance, dancers, dancing, singing, rap, hip-hop, rb, prospects, talented, managment",
339,5d245689f82093f85a6f087b,games_video,,2003.0,52.137784,11.642487,impara,,"{'type': 'Point', 'coordinates': [11.642487, 52.137784]}","virtual-world, learning, collaboration, computer-games",
340,5d245689f82093f85a6f087c,games_video,,2000.0,47.704028,-122.210339,MixMeister,,"{'type': 'Point', 'coordinates': [-122.210339, 47.704028]}","music-software, djs, dj, music-mixes",
341,5d245689f82093f85a6f08ba,games_video,,2007.0,48.143941,11.450883,Kazzong,8.0,"{'type': 'Point', 'coordinates': [11.450883, 48.143941]}","music, social-network, mp3, download, distribution",
342,5d245689f82093f85a6f08c8,games_video,,2007.0,51.318503,12.381492,FABINET,5.0,"{'type': 'Point', 'coordinates': [12.381492, 51.318503]}","promoting, innovative, idea, film, video, theater, internet, author, script, treatment, synopsis",
343,5d245689f82093f85a6f08f4,games_video,,2000.0,40.738476,-73.998726,VISUALPLANT,6.0,"{'type': 'Point', 'coordinates': [-73.998726, 40.738476]}","internet-video, internet-video-platform, internet-media, internet-media-platform, social-media-platform, white-label-social-media, user-generated, white-label-social-media-platform, social-media-network, content-delivery-network, longtail, niche-content",500000.0
344,5d245689f82093f85a6f08f6,games_video,2011.0,2006.0,37.786906,-122.397672,Lexy,,"{'type': 'Point', 'coordinates': [-122.397672, 37.786906]}","audio, mobile, music",1710000.0
345,5d245689f82093f85a6f08f7,games_video,,1996.0,42.369007,-71.110276,GenArts,15.0,"{'type': 'Point', 'coordinates': [-71.110276, 42.369007]}","special-effects, visual-effects, software, vfx, editing, motion-graphics",22400000.0
346,5d245689f82093f85a6f0914,games_video,,2007.0,51.678254,-0.572355,Sportstation,1.0,"{'type': 'Point', 'coordinates': [-0.572355, 51.678254]}","sports, build-website, grassroots, team, clubs",
347,5d245689f82093f85a6f0915,games_video,,2008.0,42.23988,-71.839344,IBTgames,11.0,"{'type': 'Point', 'coordinates': [-71.839344, 42.23988]}","social-applications, social-gaming, sports, casual-gaming",25000.0
348,5d245689f82093f85a6f0921,games_video,,2008.0,23.797333,90.401432,IBTgames,11.0,"{'type': 'Point', 'coordinates': [90.401432, 23.797333]}","social-applications, social-gaming, sports, casual-gaming",25000.0
349,5d245689f82093f85a6f095e,games_video,,1998.0,41.977257,-87.668365,Mightybytes,8.0,"{'type': 'Point', 'coordinates': [-87.668365, 41.977257]}","design, media, web, flash, video, interactive, chicago",
350,5d245689f82093f85a6f0983,games_video,,2007.0,47.6141,-122.33763,Jootware,2.0,"{'type': 'Point', 'coordinates': [-122.33763, 47.6141]}",music-mp3,
351,5d245689f82093f85a6f0993,games_video,,2007.0,45.564209,12.436354,LOG607,6.0,"{'type': 'Point', 'coordinates': [12.436354, 45.564209]}","alternate-reality-game, immersive-game, travel, interactive-web-serial, chaotic-fiction",600000.0
352,5d245689f82093f85a6f0997,games_video,,2000.0,36.059658,-115.23671,iStreamPlanet,50.0,"{'type': 'Point', 'coordinates': [-115.23671, 36.059658]}","web-video, streaming, webcast, tradeshow-video",15000000.0
353,5d245689f82093f85a6f09cc,games_video,,2007.0,37.400689,-122.0572,Anvato,,"{'type': 'Point', 'coordinates': [-122.0572, 37.400689]}","contextual-video-search, video-copyright",2550000.0
354,5d245689f82093f85a6f09d3,games_video,,2008.0,51.5399105,-0.2859795,Mixcloud,8.0,"{'type': 'Point', 'coordinates': [-0.2859795, 51.5399105]}","music, radio, podcasts, djs, cloudcasts",
355,5d245689f82093f85a6f09e2,games_video,,2008.0,37.7705096,-122.4015807,ngmoco,150.0,"{'type': 'Point', 'coordinates': [-122.4015807, 37.7705096]}","gaming, iphone-games, mobile-games, mobile, iphone",44800000.0
356,5d245689f82093f85a6f09e8,games_video,,,34.057646,-118.417382,Network Foundation Technologies,,"{'type': 'Point', 'coordinates': [-118.417382, 34.057646]}","video, audio, broadcast, nft",1440000.0
357,5d245689f82093f85a6f09f7,games_video,,1998.0,51.503612,-0.25628,Illumina Digital,55.0,"{'type': 'Point', 'coordinates': [-0.25628, 51.503612]}",multiplatform-broadcast-learning-culture-heritage-entertainment-web-tv,
358,5d245689f82093f85a6f0a40,games_video,,,40.80405,-73.952833,InChairTV,,"{'type': 'Point', 'coordinates': [-73.952833, 40.80405]}","tv, movies",
359,5d245689f82093f85a6f0a56,games_video,,,42.687142,-71.212156,Veveo,,"{'type': 'Point', 'coordinates': [-71.212156, 42.687142]}",web-video,14000000.0
360,5d245689f82093f85a6f0a5b,games_video,2010.0,2007.0,36.163965,-86.796377,GoYoDeo,6.0,"{'type': 'Point', 'coordinates': [-86.796377, 36.163965]}","video, channel, photo, document, publish, share, sharing",150000.0
361,5d245689f82093f85a6f0a64,games_video,,2008.0,34.070436,-118.350486,Tubefilter,12.0,"{'type': 'Point', 'coordinates': [-118.350486, 34.070436]}","web-television, webtv, online-video, episodic, new-media, web-series, hollywood, entertainment",
362,5d245689f82093f85a6f0a65,games_video,,2002.0,32.724783,-97.416646,AccuConference,,"{'type': 'Point', 'coordinates': [-97.416646, 32.724783]}","conference-call, web-conferencing, video-conferencing",
363,5d245689f82093f85a6f0a9c,games_video,2011.0,2008.0,37.437328,-122.159928,Snipd,2.0,"{'type': 'Point', 'coordinates': [-122.159928, 37.437328]}","snip-it, images, videos",15000.0
364,5d245689f82093f85a6f0a9d,games_video,2011.0,2008.0,30.268735,-97.745209,Snipd,2.0,"{'type': 'Point', 'coordinates': [-97.745209, 30.268735]}","snip-it, images, videos",15000.0
365,5d245689f82093f85a6f0aa2,games_video,,1999.0,25.817674,-80.18874,ModernMethod,47.0,"{'type': 'Point', 'coordinates': [-80.18874, 25.817674]}","elephantblog, modernmethod, destructoid, blogging, community, web2-0, video-games, anime, toys",
366,5d245689f82093f85a6f0aa8,games_video,2012.0,2006.0,47.656975,-122.205614,1Cast,,"{'type': 'Point', 'coordinates': [-122.205614, 47.656975]}","video, microcasts, clips, content, casts, news, ap, afp, al-jazeera, allthingsd, barrons, bloomberg, bbc, cbc, cnbc, dow-jones, e, fox, marketwatch, nyfp, nymag, reuters, style, thestreet-com, wall-street-journal",
367,5d245689f82093f85a6f0acb,games_video,,2008.0,51.417565,-1.313068,Groopi,1.0,"{'type': 'Point', 'coordinates': [-1.313068, 51.417565]}","free, music, musicians, band, myspace-alternative, css3, web-2-0, video, audio",
368,5d245689f82093f85a6f0ad7,games_video,,,51.7691138,-1.261946,MyElephantBites,,"{'type': 'Point', 'coordinates': [-1.261946, 51.7691138]}","slideshows, slide-shows, photo-sharing, image-hosting, widgets, myspace-codes, web-publishing, music, self-expression, photo-movie, photomovie, community, download",
369,5d245689f82093f85a6f0ad9,games_video,,2008.0,52.472029,-0.698361,twit+,1.0,"{'type': 'Point', 'coordinates': [-0.698361, 52.472029]}","twitter, video, picture, file-share, micro-blogging, blogginb, file-exchange, secure-file-share",
370,5d245689f82093f85a6f0b17,games_video,2012.0,2006.0,37.783046,-122.394067,Shattered Reality Interactive,10.0,"{'type': 'Point', 'coordinates': [-122.394067, 37.783046]}","techcrunch50, tc50, games, mmo, social, online, casual-games",1100000.0
371,5d245689f82093f85a6f0b23,games_video,,2006.0,48.846726,2.321213,Wevod,8.0,"{'type': 'Point', 'coordinates': [2.321213, 48.846726]}","video, webtv, video-mail, communication, publishing, broadcasting, podcast",336450.0
372,5d245689f82093f85a6f0b3f,games_video,,2008.0,37.80204,-122.438231,plaYce,7.0,"{'type': 'Point', 'coordinates': [-122.438231, 37.80204]}","techcrunch50, tc50, gaming, virtual-world, mirror-world, 3d, geo",
373,5d245689f82093f85a6f0b4d,games_video,,2008.0,37.448598,-122.158497,Bojam,5.0,"{'type': 'Point', 'coordinates': [-122.158497, 37.448598]}","techcrunch50, tc50, music, online-music-collaboration, open-source, wiki, contribute, media, audio-recording, mixing",
374,5d245689f82093f85a6f0b64,games_video,,2007.0,40.72267,-73.518183,360 Sports Software,1.0,"{'type': 'Point', 'coordinates': [-73.518183, 40.72267]}","web-application, sports, sports-software",
375,5d245689f82093f85a6f0b8c,games_video,,2008.0,32.037363,34.8003705,Tweegee,22.0,"{'type': 'Point', 'coordinates': [34.8003705, 32.037363]}","techcrunch50, tc50, kids, tweens, safty, games, avatar, virtual-world, fun, entertainment, cartoons, movies, social-network, social-activities",3000000.0
376,5d245689f82093f85a6f0b99,games_video,,2005.0,33.5159679,-101.905099,Project Amarillo,5.0,"{'type': 'Point', 'coordinates': [-101.905099, 33.5159679]}","amarillo, texas, music, bands, live, concert, musicians, artists, calendar, tx, forum, message-board, venues",
377,5d245689f82093f85a6f0bf7,games_video,,2011.0,40.714056,-73.957854,Kidos,,"{'type': 'Point', 'coordinates': [-73.957854, 40.714056]}","kids, learning, games, operating, system",200000.0
378,5d245689f82093f85a6f0bfa,games_video,,2011.0,40.768058,-73.956599,Kidos,,"{'type': 'Point', 'coordinates': [-73.956599, 40.768058]}","kids, learning, games, operating, system",200000.0
379,5d245689f82093f85a6f0c0c,games_video,,2005.0,42.352835,-71.0609612,Hangout Industries,,"{'type': 'Point', 'coordinates': [-71.0609612, 42.352835]}","techcrunch50, tc50",12000000.0
380,5d245689f82093f85a6f0c2d,games_video,,1999.0,40.809076,-74.119948,Groove Club,5.0,"{'type': 'Point', 'coordinates': [-74.119948, 40.809076]}","social-site, new-media, online-games, mmog, mog, mafia-mob, web-tv, web-television, tv, television",83000.0
381,5d245689f82093f85a6f0c3d,games_video,2010.0,2007.0,36.163965,-86.796377,GoYoDeo,6.0,"{'type': 'Point', 'coordinates': [-86.796377, 36.163965]}","video, channel, photo, document, publish, share, sharing",150000.0
382,5d245689f82093f85a6f0c43,games_video,,2002.0,32.724783,-97.416646,AccuConference,,"{'type': 'Point', 'coordinates': [-97.416646, 32.724783]}","conference-call, web-conferencing, video-conferencing",
383,5d245689f82093f85a6f0c46,games_video,,2008.0,34.070436,-118.350486,Tubefilter,12.0,"{'type': 'Point', 'coordinates': [-118.350486, 34.070436]}","web-television, webtv, online-video, episodic, new-media, web-series, hollywood, entertainment",
384,5d245689f82093f85a6f0c77,games_video,2011.0,2008.0,37.437328,-122.159928,Snipd,2.0,"{'type': 'Point', 'coordinates': [-122.159928, 37.437328]}","snip-it, images, videos",15000.0
385,5d245689f82093f85a6f0c79,games_video,2011.0,2008.0,30.268735,-97.745209,Snipd,2.0,"{'type': 'Point', 'coordinates': [-97.745209, 30.268735]}","snip-it, images, videos",15000.0
386,5d245689f82093f85a6f0c82,games_video,,1999.0,25.817674,-80.18874,ModernMethod,47.0,"{'type': 'Point', 'coordinates': [-80.18874, 25.817674]}","elephantblog, modernmethod, destructoid, blogging, community, web2-0, video-games, anime, toys",
387,5d245689f82093f85a6f0c83,games_video,2012.0,2006.0,47.656975,-122.205614,1Cast,,"{'type': 'Point', 'coordinates': [-122.205614, 47.656975]}","video, microcasts, clips, content, casts, news, ap, afp, al-jazeera, allthingsd, barrons, bloomberg, bbc, cbc, cnbc, dow-jones, e, fox, marketwatch, nyfp, nymag, reuters, style, thestreet-com, wall-street-journal",
388,5d245689f82093f85a6f0c96,games_video,,2008.0,51.417565,-1.313068,Groopi,1.0,"{'type': 'Point', 'coordinates': [-1.313068, 51.417565]}","free, music, musicians, band, myspace-alternative, css3, web-2-0, video, audio",
389,5d245689f82093f85a6f0c9c,games_video,,,51.7691138,-1.261946,MyElephantBites,,"{'type': 'Point', 'coordinates': [-1.261946, 51.7691138]}","slideshows, slide-shows, photo-sharing, image-hosting, widgets, myspace-codes, web-publishing, music, self-expression, photo-movie, photomovie, community, download",
390,5d245689f82093f85a6f0cb6,games_video,,2008.0,52.472029,-0.698361,twit+,1.0,"{'type': 'Point', 'coordinates': [-0.698361, 52.472029]}","twitter, video, picture, file-share, micro-blogging, blogginb, file-exchange, secure-file-share",
391,5d245689f82093f85a6f0cf3,games_video,2012.0,2006.0,37.783046,-122.394067,Shattered Reality Interactive,10.0,"{'type': 'Point', 'coordinates': [-122.394067, 37.783046]}","techcrunch50, tc50, games, mmo, social, online, casual-games",1100000.0
392,5d245689f82093f85a6f0cfe,games_video,,2006.0,48.846726,2.321213,Wevod,8.0,"{'type': 'Point', 'coordinates': [2.321213, 48.846726]}","video, webtv, video-mail, communication, publishing, broadcasting, podcast",336450.0
393,5d245689f82093f85a6f0d1a,games_video,,2008.0,37.80204,-122.438231,plaYce,7.0,"{'type': 'Point', 'coordinates': [-122.438231, 37.80204]}","techcrunch50, tc50, gaming, virtual-world, mirror-world, 3d, geo",
394,5d245689f82093f85a6f0d2e,games_video,,2008.0,37.448598,-122.158497,Bojam,5.0,"{'type': 'Point', 'coordinates': [-122.158497, 37.448598]}","techcrunch50, tc50, music, online-music-collaboration, open-source, wiki, contribute, media, audio-recording, mixing",
395,5d245689f82093f85a6f0d45,games_video,,2007.0,40.72267,-73.518183,360 Sports Software,1.0,"{'type': 'Point', 'coordinates': [-73.518183, 40.72267]}","web-application, sports, sports-software",
396,5d245689f82093f85a6f0d6d,games_video,,2008.0,32.037363,34.8003705,Tweegee,22.0,"{'type': 'Point', 'coordinates': [34.8003705, 32.037363]}","techcrunch50, tc50, kids, tweens, safty, games, avatar, virtual-world, fun, entertainment, cartoons, movies, social-network, social-activities",3000000.0
397,5d245689f82093f85a6f0d77,games_video,,2005.0,33.5159679,-101.905099,Project Amarillo,5.0,"{'type': 'Point', 'coordinates': [-101.905099, 33.5159679]}","amarillo, texas, music, bands, live, concert, musicians, artists, calendar, tx, forum, message-board, venues",
398,5d245689f82093f85a6f0dd2,games_video,,2011.0,40.768058,-73.956599,Kidos,,"{'type': 'Point', 'coordinates': [-73.956599, 40.768058]}","kids, learning, games, operating, system",200000.0
399,5d245689f82093f85a6f0dd5,games_video,,2011.0,40.714056,-73.957854,Kidos,,"{'type': 'Point', 'coordinates': [-73.957854, 40.714056]}","kids, learning, games, operating, system",200000.0
400,5d245689f82093f85a6f0df5,games_video,,2005.0,42.352835,-71.0609612,Hangout Industries,,"{'type': 'Point', 'coordinates': [-71.0609612, 42.352835]}","techcrunch50, tc50",12000000.0
401,5d245689f82093f85a6f0e0a,games_video,,1999.0,40.809076,-74.119948,Groove Club,5.0,"{'type': 'Point', 'coordinates': [-74.119948, 40.809076]}","social-site, new-media, online-games, mmog, mog, mafia-mob, web-tv, web-television, tv, television",83000.0
402,5d245689f82093f85a6f0e60,games_video,,2004.0,33.8317964,-84.3391231,Endavo Media and Communications,15.0,"{'type': 'Point', 'coordinates': [-84.3391231, 33.8317964]}","ott, ott-video, ott-video-services, online-video-platform, internet-tv-platform, broadband-video, broadband-video-platform, online-video, online-video-marketing, internet-tv, iptv, video-player, video-for-websites, streaming-media-hosting, digital-broadca",
403,5d245689f82093f85a6f0e73,games_video,,2008.0,37.804619,-122.371203,Brightstorm,,"{'type': 'Point', 'coordinates': [-122.371203, 37.804619]}","video, education, learning",6000000.0
404,5d245689f82093f85a6f0e85,games_video,,2008.0,37.48413,-122.169472,OUTSHOUTS,,"{'type': 'Point', 'coordinates': [-122.169472, 37.48413]}","online-video, media-sharing",
405,5d245689f82093f85a6f0eac,games_video,,2008.0,41.65292,-83.577782,TWIOA,5.0,"{'type': 'Point', 'coordinates': [-83.577782, 41.65292]}","twioa, the-world-is-off-again",
406,5d245689f82093f85a6f0ec0,games_video,,2008.0,30.297775,-97.762921,Heatwave Interactive,,"{'type': 'Point', 'coordinates': [-97.762921, 30.297775]}",,12600000.0
407,5d245689f82093f85a6f0ed6,games_video,,2010.0,49.2871668,-123.1169693,Equedia,,"{'type': 'Point', 'coordinates': [-123.1169693, 49.2871668]}","social-network, investment, stock-trading, tag-and-deliver, video-presentation, video-upload, analysts, business-media, connect",
408,5d245689f82093f85a6f0efa,games_video,,2005.0,32.895267,-117.191342,MP3Tunes,,"{'type': 'Point', 'coordinates': [-117.191342, 32.895267]}","mp3, music-player, music-streaming",
409,5d245689f82093f85a6f0f02,games_video,,2006.0,40.1128,-88.271074,Radio One Llama,10.0,"{'type': 'Point', 'coordinates': [-88.271074, 40.1128]}",,1000000.0
410,5d245689f82093f85a6f0f0d,games_video,2010.0,2007.0,22.51328,88.387327,Videofropper,3.0,"{'type': 'Point', 'coordinates': [88.387327, 22.51328]}","video, fropper, streaming, clips",
411,5d245689f82093f85a6f0f2f,games_video,2011.0,2007.0,38.233786,-122.636071,FanPrice,,"{'type': 'Point', 'coordinates': [-122.636071, 38.233786]}","tickets, events, sports, ticket-exchange",
412,5d245689f82093f85a6f0f34,games_video,,2008.0,29.550027,-95.693347,ReplayGamez,10.0,"{'type': 'Point', 'coordinates': [-95.693347, 29.550027]}","trade-video-games, videogame, unlimited, playstation-3, ps3, playstation-2, ps2, playstation-ii, nintendo, reviews, screenshots, online, service, games, xbox, xbox-360, gamecube, nintendo-gamecube, nintend-ds, ds, wii, nintendo-wii, psp, sony-playstation-",
413,5d245689f82093f85a6f0f4a,games_video,,2006.0,53.335773,-6.371726,Musicreview,5.0,"{'type': 'Point', 'coordinates': [-6.371726, 53.335773]}","music, review, cd, album, live",
414,5d245689f82093f85a6f0f4f,games_video,,2008.0,25.733027,-80.432061,Denook,2.0,"{'type': 'Point', 'coordinates': [-80.432061, 25.733027]}","crowdsourcing, design-contests, music-contests, creative-marketplace, sell, buy, designs",
415,5d245689f82093f85a6f0f56,games_video,,,34.0522,-118.2429,SportsGenie,,"{'type': 'Point', 'coordinates': [-118.2429, 34.0522]}","fantasy-sports, game",
416,5d245689f82093f85a6f0f5b,games_video,2010.0,2007.0,37.775196,-122.419204,One Season,,"{'type': 'Point', 'coordinates': [-122.419204, 37.775196]}","sports, market, stockmarket",3750000.0
417,5d245689f82093f85a6f0f83,games_video,,2006.0,41.303696,-72.768842,Fusion Creative Studios,12.0,"{'type': 'Point', 'coordinates': [-72.768842, 41.303696]}","facebook-game-developer, iphone-game-developers, foxie-jump-on-facebook",
418,5d245689f82093f85a6f0f9a,games_video,,2007.0,34.09316,-118.378335,Meteor Games,70.0,"{'type': 'Point', 'coordinates': [-118.378335, 34.09316]}","gaming, online-entertainment, social-games, casual-games, online-community, game-studio, game-development-studio, social-network",
419,5d245689f82093f85a6f0f9b,games_video,,2001.0,60.171821,24.945167,Apaja,44.0,"{'type': 'Point', 'coordinates': [24.945167, 60.171821]}","online, games, online-games, casual-games, gaming, avatars, community, entertainment, helsinki, finnish, playray, aapeli",1962625.0
420,5d245689f82093f85a6f0fb5,games_video,,1997.0,34.145984,-118.776083,THQ,,"{'type': 'Point', 'coordinates': [-118.776083, 34.145984]}",online-gaming,
421,5d245689f82093f85a6f0fb8,games_video,,2007.0,34.05438,-118.26728,Sceneclips,4.0,"{'type': 'Point', 'coordinates': [-118.26728, 34.05438]}","independent-film, film-funding, film-financing, indie-film, film-investors, social-networks",
422,5d245689f82093f85a6f0fba,games_video,,2005.0,45.792717,4.830048,DigitalDeejay,12.0,"{'type': 'Point', 'coordinates': [4.830048, 45.792717]}","mix, dj-mix, dj-mixes, mixed-music",
423,5d245689f82093f85a6f0fcf,games_video,2013.0,2009.0,42.2802675,-83.7420579,Mybandstock,19.0,"{'type': 'Point', 'coordinates': [-83.7420579, 42.2802675]}",,
424,5d245689f82093f85a6f0ff1,games_video,,,32.258001,-110.942493,Good Call Sports,,"{'type': 'Point', 'coordinates': [-110.942493, 32.258001]}","facebook-app, games, football",
425,5d245689f82093f85a6f0ffd,games_video,,2008.0,37.420728,-122.2103414,Booyah,,"{'type': 'Point', 'coordinates': [-122.2103414, 37.420728]}","iphone, real-world-gaming, location-based-gaming, gps, ipod-touch, mytown, monopoly, location-based, check-in, real-world, offers, avatar, mmo, mobile, mobile-games, social-game, social-games",59500000.0
426,5d245689f82093f85a6f0fff,games_video,,2006.0,37.77772,-122.395785,GotGame,15.0,"{'type': 'Point', 'coordinates': [-122.395785, 37.77772]}","games, video-games, videos, gaming-videos, news, gaming-news, in-game, chat, communication, instant-messaging, voice-chat",1000000.0
427,5d245689f82093f85a6f1000,games_video,,1999.0,53.296176,-2.092073,The Game Creators,7.0,"{'type': 'Point', 'coordinates': [-2.092073, 53.296176]}","game, games, entertainment, development",25000.0
428,5d245689f82093f85a6f1004,games_video,2012.0,2007.0,50.947112,6.842133,Karo Internet,10.0,"{'type': 'Point', 'coordinates': [6.842133, 50.947112]}","xchar, social-community, world-of-warcraft, add-ons, online-gaming, fiends",953275.0
429,5d245689f82093f85a6f1019,games_video,2010.0,2007.0,40.744594,-73.989698,For Your Imagination,10.0,"{'type': 'Point', 'coordinates': [-73.989698, 40.744594]}","online-video, video-marketing, marketing, branded-entertainment",1300000.0
430,5d245689f82093f85a6f102f,games_video,,2007.0,41.889183,-87.632519,SureSpeak,8.0,"{'type': 'Point', 'coordinates': [-87.632519, 41.889183]}",video-flash-asp-net--net-coaching-sales-training-elearning-lms-role-play,1600000.0
431,5d245689f82093f85a6f1031,games_video,2009.0,2008.0,49.263588,-123.138565,Sonichall,2.0,"{'type': 'Point', 'coordinates': [-123.138565, 49.263588]}","music, download, mp3, creative-commons, independent, free-downloads",
432,5d245689f82093f85a6f1032,games_video,,1986.0,45.058576,7.649614,deltatre,225.0,"{'type': 'Point', 'coordinates': [7.649614, 45.058576]}","sport, web-sites, results, video, live, graphics, website, broadcasters, broadcasting, broadband, webcast, video-palyer, tracking-system, data-gathering, multi-sport-events",
433,5d245689f82093f85a6f1064,games_video,,2006.0,37.8448035,-122.290897,SonicLiving,10.0,"{'type': 'Point', 'coordinates': [-122.290897, 37.8448035]}","concerts, music, shows, events, social-network, itunes, pandora",
434,5d245689f82093f85a6f106b,games_video,,2005.0,18.9742904,72.8127265,Games2Win,,"{'type': 'Point', 'coordinates': [72.8127265, 18.9742904]}",,13000000.0
435,5d245689f82093f85a6f106e,games_video,,1999.0,41.893622,-87.627423,BAM Studios,6.0,"{'type': 'Point', 'coordinates': [-87.627423, 41.893622]}","audio, adr, voice-over, sound-design, sweetening, surround-sound, digital-patch",
436,5d245689f82093f85a6f108c,games_video,,2002.0,33.6695,-117.8222,Blizzard Entertainment,,"{'type': 'Point', 'coordinates': [-117.8222, 33.6695]}","mmo, software, video-games",
437,5d245689f82093f85a6f1095,games_video,,2008.0,49.03767,8.714079,telewebber,3.0,"{'type': 'Point', 'coordinates': [8.714079, 49.03767]}","tv-2-0, tv, community, realtime, social-network, television",
438,5d245689f82093f85a6f109d,games_video,2011.0,2009.0,46.8081938,-71.2373393,Star Fever Agency,5.0,"{'type': 'Point', 'coordinates': [-71.2373393, 46.8081938]}","casual-games, mmos-browser, virtual-worlds",550000.0
439,5d245689f82093f85a6f10d8,games_video,,2007.0,48.887534,2.356288,Awdio,,"{'type': 'Point', 'coordinates': [2.356288, 48.887534]}","music, dj, club, internet, stream, live",1682250.0
440,5d245689f82093f85a6f10e5,games_video,,2007.0,26.109005,-80.4021,Indomite Music,4.0,"{'type': 'Point', 'coordinates': [-80.4021, 26.109005]}","online-music-collboration, music, online, sharing, jamming, community, collaboration, sequencer, mixer",
441,5d245689f82093f85a6f10fc,games_video,,2006.0,42.431652,-71.455658,38 Studios,49.0,"{'type': 'Point', 'coordinates': [-71.455658, 42.431652]}","gaming, video, video-games, intellectual-property, entertainment, massachusetts, curt-schilling, multi-player-gaming, 38-studios",
442,5d245689f82093f85a6f1119,games_video,2011.0,2002.0,38.947914,-77.342896,Zadby,,"{'type': 'Point', 'coordinates': [-77.342896, 38.947914]}","launchbox08, video, marketing",
443,5d245689f82093f85a6f1123,games_video,,2006.0,48.8926988,2.3179601,Citizenside,12.0,"{'type': 'Point', 'coordinates': [2.3179601, 48.8926988]}","citizenside, citizen, reporters, ugc, content, afp, videos, photos, news, agency, celebrities, celebs, citizen-reports, people, white-label, matthieu, stefani, platforms, amateur-content",1166360.0
444,5d245689f82093f85a6f112f,games_video,,2004.0,52.220726,5.198824,SPIL GAMES,300.0,"{'type': 'Point', 'coordinates': [5.198824, 52.220726]}","casual-games, game-industry, game-portals, advertising, online-games",
445,5d245689f82093f85a6f1130,games_video,,2007.0,38.927596,-104.830775,Compete-At,12.0,"{'type': 'Point', 'coordinates': [-104.830775, 38.927596]}","online-registration, event-planning, sports, olympics, event-management",
446,5d245689f82093f85a6f1131,games_video,,2007.0,38.9897861,-77.0989247,Compete-At,12.0,"{'type': 'Point', 'coordinates': [-77.0989247, 38.9897861]}","online-registration, event-planning, sports, olympics, event-management",
447,5d245689f82093f85a6f1133,games_video,,2006.0,33.9905,-118.4595,inDplay,,"{'type': 'Point', 'coordinates': [-118.4595, 33.9905]}","ascent-media, video, platform, sales, video-content",
448,5d245689f82093f85a6f114b,games_video,,2003.0,37.3874345,-122.051793,Verismo Networks,,"{'type': 'Point', 'coordinates': [-122.051793, 37.3874345]}",,17000000.0
449,5d245689f82093f85a6f1154,games_video,,2007.0,41.907542,-87.66299,Plugola,2.0,"{'type': 'Point', 'coordinates': [-87.66299, 41.907542]}","music, direct-to-fan, crowdfunding",
450,5d245689f82093f85a6f115e,games_video,,2007.0,37.781386,-122.421406,TubeSpree,11.0,"{'type': 'Point', 'coordinates': [-122.421406, 37.781386]}","online-videos, product-reviews, consumer-reports, consumer-analysis, consumer-reviews, making-money-online, make-money-online, review-videos, marketing-videos, commercial-videos, product-expert, product-review-sites, reviews, unbiased-reports, unbiased-re",
451,5d245689f82093f85a6f1161,games_video,,1999.0,34.052187,-118.243425,PlayerAuctions,30.0,"{'type': 'Point', 'coordinates': [-118.243425, 34.052187]}","mmog, gaming, games, virtual-marketplace, digital-asset-exchange, wow, world-of-warcraft, virtual-goods",
452,5d245689f82093f85a6f1184,games_video,,2005.0,37.485824,-122.212095,One True Media,,"{'type': 'Point', 'coordinates': [-122.212095, 37.485824]}","video-sharing, video-edting, collaboration",14000000.0
453,5d245689f82093f85a6f1185,games_video,,2008.0,33.961646,-84.368975,ZOOZ Mobile,5.0,"{'type': 'Point', 'coordinates': [-84.368975, 33.961646]}","music, game, mobile, phone, motion, gesture",
454,5d245689f82093f85a6f1194,games_video,,2000.0,34.0906409,-118.3740745,Machinima,,"{'type': 'Point', 'coordinates': [-118.3740745, 34.0906409]}","gaming, video-games, game-teasers, video",49600000.0
455,5d245689f82093f85a6f119d,games_video,2012.0,2007.0,33.4590557,-117.6513647,pickrset,1.0,"{'type': 'Point', 'coordinates': [-117.6513647, 33.4590557]}","music, interaction, concerts, setlists, music-merchandise",100000.0
456,5d245689f82093f85a6f11a8,games_video,,1998.0,34.070146,-118.365526,MovieFlix,2.0,"{'type': 'Point', 'coordinates': [-118.365526, 34.070146]}","movies, video, online, streaming, download",
457,5d245689f82093f85a6f11ad,games_video,,1996.0,48.429856,-123.3558507,Backstage Technologies,17.0,"{'type': 'Point', 'coordinates': [-123.3558507, 48.429856]}","facebook-applications, facebook-apps, casual-games, social-networks",
458,5d245689f82093f85a6f121c,games_video,,2008.0,45.5411602,-73.7481222,InnovSoft Consulting Limited,7.0,"{'type': 'Point', 'coordinates': [-73.7481222, 45.5411602]}",instant-web-video-web-videos-online-video-editing-online-special-effects,
459,5d245689f82093f85a6f1224,games_video,,2002.0,44.8672747,-93.3287493,Zepol,,"{'type': 'Point', 'coordinates': [-93.3287493, 44.8672747]}","us-customs-data, competitve-intelligence, market-analysis, brand-protection, supplier-sourcing",
460,5d245689f82093f85a6f122a,games_video,,2007.0,40.7166822,-74.005398,Pilotlite,5.0,"{'type': 'Point', 'coordinates': [-74.005398, 40.7166822]}","michael-mailer, joseph-matheny, video, online-television",
461,5d245689f82093f85a6f126c,games_video,,2007.0,25.6482589,-80.3399908,Kompoz,2.0,"{'type': 'Point', 'coordinates': [-80.3399908, 25.6482589]}","music, collaboration, social-network",
462,5d245689f82093f85a6f1282,games_video,,2006.0,37.9815443,23.7569904,Away,5.0,"{'type': 'Point', 'coordinates': [23.7569904, 37.9815443]}","startups, games, gaming, blog, technology, gadgets",
463,5d245689f82093f85a6f129f,games_video,,1999.0,51.052508,-114.0916328,TeenHollywood,3.0,"{'type': 'Point', 'coordinates': [-114.0916328, 51.052508]}","teens, celebrities, magazines, entertainment, hollywood, music, movies",
464,5d245689f82093f85a6f12a5,games_video,,1996.0,47.3661111,-122.0447222,CheatCodes,,"{'type': 'Point', 'coordinates': [-122.0447222, 47.3661111]}",,
465,5d245689f82093f85a6f12bb,games_video,,1998.0,43.6273729,7.0524451,MadWaves,8.0,"{'type': 'Point', 'coordinates': [7.0524451, 43.6273729]}","widget, engagement-marketing, video, advert, film, web-2-0, multimedia, viral, remix, social-networking",
466,5d245689f82093f85a6f12c8,games_video,,2006.0,44.923088,-93.34806,Book a Lesson,2.0,"{'type': 'Point', 'coordinates': [-93.34806, 44.923088]}","scheduling-software, sports, tutoring, accounting",
467,5d245689f82093f85a6f12d6,games_video,,2007.0,51.5001524,-0.1262362,BeatPick,,"{'type': 'Point', 'coordinates': [-0.1262362, 51.5001524]}","music-licensing, license-music, pre-cleared-music, sync-license, music-for-public-spaces, music-for-film, music-for-advertising, music-for-documentary, music-for-website, music-for-dvd, music-for-internet, creative-commons, in-store-music, background-musi",
468,5d245689f82093f85a6f12d8,games_video,,2007.0,41.8954656,12.4823243,BeatPick,,"{'type': 'Point', 'coordinates': [12.4823243, 41.8954656]}","music-licensing, license-music, pre-cleared-music, sync-license, music-for-public-spaces, music-for-film, music-for-advertising, music-for-documentary, music-for-website, music-for-dvd, music-for-internet, creative-commons, in-store-music, background-musi",
469,5d245689f82093f85a6f12e7,games_video,,2007.0,37.5768841,-122.3462137,MixMatchMusic,12.0,"{'type': 'Point', 'coordinates': [-122.3462137, 37.5768841]}","music, remix, collaborate, profit, engage, online, stem, license, artist",
470,5d245689f82093f85a6f12e9,games_video,,2008.0,47.6254784,-122.3564234,Valu Valu,3.0,"{'type': 'Point', 'coordinates': [-122.3564234, 47.6254784]}","stock-market, quantitative, trading, investment, strategy, data-mining, artificial-intelligence",
471,5d245689f82093f85a6f1305,games_video,,2007.0,52.0848526,5.1682449,VIDDIX,5.0,"{'type': 'Point', 'coordinates': [5.1682449, 52.0848526]}","video, presentations, communications",112150.0
472,5d245689f82093f85a6f1312,games_video,,2008.0,52.342938,4.8419083,Gemzies,3.0,"{'type': 'Point', 'coordinates': [4.8419083, 52.342938]}","social, community, expert, bookmark, wikipedia, topic, videos, images, news, books, ranking, serious, topics, favorites",
473,5d245689f82093f85a6f1340,games_video,,2008.0,42.362856,-71.083762,Geocade,,"{'type': 'Point', 'coordinates': [-71.083762, 42.362856]}","iphone, games, social-network, mobile, location-based-services, gps",
474,5d245689f82093f85a6f13a0,games_video,,2007.0,59.3327881,18.0644881,iViioo,10.0,"{'type': 'Point', 'coordinates': [18.0644881, 59.3327881]}","video-services, video-email, video-message, video-api, computing-cloud, video-interview, video-job-interview, video-recruiting, recruiting-process-outsourcing, human-resources, human-resource-management, human-capital-management, recruitment-process",
475,5d245689f82093f85a6f13a2,games_video,,2007.0,37.5340363,-121.9131761,iViioo,10.0,"{'type': 'Point', 'coordinates': [-121.9131761, 37.5340363]}","video-services, video-email, video-message, video-api, computing-cloud, video-interview, video-job-interview, video-recruiting, recruiting-process-outsourcing, human-resources, human-resource-management, human-capital-management, recruitment-process",
